{
"type": "FeatureCollection",
"crs": { "type": "name", "properties": { "name": "urn:ogc:def:crs:OGC:1.3:CRS84" } },
                                                                                
"features": [
{ "type": "Feature", "properties": { "NAME": "Academy of Somatic Healing Arts", "ADDRESS": "6251 Smithpointe Drive", "CITY": "Norcross", "ZIP": 30092.0, "STUDENTS10": 52.0, "TAZ05": 984.0, "MTAZ10": 2516.0, "NOTES": null, "sunrise": 2010, "sunset": 9999 }, "geometry": { "type": "Point", "coordinates": [ -84.24804916902545, 33.961523720264822 ] } },
{ "type": "Feature", "properties": { "NAME": "Agnes Scott College", "ADDRESS": "141 East College Avenue", "CITY": "Decatur", "ZIP": 30030.0, "STUDENTS10": 917.0, "TAZ05": 573.0, "MTAZ10": 1628.0, "NOTES": null, "sunrise": 2010, "sunset": 9999 }, "geometry": { "type": "Point", "coordinates": [ -84.294428034894892, 33.768634250525793 ] } },
{ "type": "Feature", "properties": { "NAME": "American InterContinental University\/Dunwoody", "ADDRESS": "6600 Peachtree Dunwoody Road NE", "CITY": "Atlanta", "ZIP": 30328.0, "STUDENTS10": 2116.0, "TAZ05": 1671.0, "MTAZ10": 208.0, "NOTES": null, "sunrise": 2010, "sunset": 9999 }, "geometry": { "type": "Point", "coordinates": [ -84.354796675999978, 33.938669374873797 ] } },
{ "type": "Feature", "properties": { "NAME": "Anthem College\/Atlanta", "ADDRESS": "2450 Piedmont Road NE", "CITY": "Atlanta", "ZIP": 30324.0, "STUDENTS10": 33.0, "TAZ05": 1654.0, "MTAZ10": 358.0, "NOTES": null, "sunrise": 2010, "sunset": 9999 }, "geometry": { "type": "Point", "coordinates": [ -84.367772175009478, 33.822676619817663 ] } },
{ "type": "Feature", "properties": { "NAME": "Argosy University\/Atlanta", "ADDRESS": "980 Hammond Drive NE", "CITY": "Atlanta", "ZIP": 30328.0, "STUDENTS10": 2793.0, "TAZ05": 1669.0, "MTAZ10": 243.0, "NOTES": null, "sunrise": 2010, "sunset": 9999 }, "geometry": { "type": "Point", "coordinates": [ -84.355314170871026, 33.920423021542589 ] } },
{ "type": "Feature", "properties": { "NAME": "Athens Technical College\/Walton", "ADDRESS": "212 Bryant Road", "CITY": "Monroe", "ZIP": 30655.0, "STUDENTS10": 314.0, "TAZ05": 1883.0, "MTAZ10": 5487.0, "NOTES": null, "sunrise": 2010, "sunset": 9999 }, "geometry": { "type": "Point", "coordinates": [ -83.706290742051834, 33.803124787808258 ] } },
{ "type": "Feature", "properties": { "NAME": "Atlanta's John Marshall Law School", "ADDRESS": "1422 West Peachtree Street NW", "CITY": "Atlanta", "ZIP": 30309.0, "STUDENTS10": 630.0, "TAZ05": 28.0, "MTAZ10": 515.0, "NOTES": null, "sunrise": 2010, "sunset": 9999 }, "geometry": { "type": "Point", "coordinates": [ -84.388215947752087, 33.793472142566664 ] } },
{ "type": "Feature", "properties": { "NAME": "Atlanta Beauty Academy", "ADDRESS": "6088 Buford Highway", "CITY": "Doraville", "ZIP": 30340.0, "STUDENTS10": 261.0, "TAZ05": 503.0, "MTAZ10": 1401.0, "NOTES": null, "sunrise": 2010, "sunset": 9999 }, "geometry": { "type": "Point", "coordinates": [ -84.259492569180679, 33.917377565891876 ] } },
{ "type": "Feature", "properties": { "NAME": "Atlanta Institute of Music", "ADDRESS": "2875 Breckinridge Boulevard", "CITY": "Duluth", "ZIP": 30096.0, "STUDENTS10": 82.0, "TAZ05": 1101.0, "MTAZ10": 2775.0, "NOTES": null, "sunrise": 2010, "sunset": 9999 }, "geometry": { "type": "Point", "coordinates": [ -84.105292433316421, 33.961079875146034 ] } },
{ "type": "Feature", "properties": { "NAME": "Atlanta Metropolitan College", "ADDRESS": "1630 Metropolitan Parkway SW", "CITY": "Atlanta", "ZIP": 30310.0, "STUDENTS10": 3037.0, "TAZ05": 89.0, "MTAZ10": 934.0, "NOTES": null, "sunrise": 2010, "sunset": 9999 }, "geometry": { "type": "Point", "coordinates": [ -84.404703573323843, 33.709543768082739 ] } },
{ "type": "Feature", "properties": { "NAME": "Atlanta School of Massage", "ADDRESS": "2 Dunwoody Park South", "CITY": "Atlanta", "ZIP": 30338.0, "STUDENTS10": 260.0, "TAZ05": 491.0, "MTAZ10": 1315.0, "NOTES": null, "sunrise": 2010, "sunset": 9999 }, "geometry": { "type": "Point", "coordinates": [ -84.311390519910404, 33.922229052292465 ] } },
{ "type": "Feature", "properties": { "NAME": "Atlanta Technical College", "ADDRESS": "1560 Metropolitan Parkway SW", "CITY": "Atlanta", "ZIP": 30310.0, "STUDENTS10": 5055.0, "TAZ05": 89.0, "MTAZ10": 934.0, "NOTES": null, "sunrise": 2010, "sunset": 9999 }, "geometry": { "type": "Point", "coordinates": [ -84.404551532535109, 33.712049126660247 ] } },
{ "type": "Feature", "properties": { "NAME": "Aviation Institute of Maintenance\/Atlanta", "ADDRESS": "2025 Satellite Pointe", "CITY": "Duluth", "ZIP": 30096.0, "STUDENTS10": 282.0, "TAZ05": 956.0, "MTAZ10": 2821.0, "NOTES": null, "sunrise": 2010, "sunset": 9999 }, "geometry": { "type": "Point", "coordinates": [ -84.147846930482459, 33.948906940456204 ] } },
{ "type": "Feature", "properties": { "NAME": "Bauder College", "ADDRESS": "384 Northyards Boulevard NW", "CITY": "Atlanta", "ZIP": 30313.0, "STUDENTS10": 946.0, "TAZ05": 49.0, "MTAZ10": 467.0, "NOTES": null, "sunrise": 2010, "sunset": 9999 }, "geometry": { "type": "Point", "coordinates": [ -84.40020706025274, 33.767536190852503 ] } },
{ "type": "Feature", "properties": { "NAME": "Beauty College of America", "ADDRESS": "1171 Main Street", "CITY": "Forest Park", "ZIP": 30297.0, "STUDENTS10": 85.0, "TAZ05": 1331.0, "MTAZ10": 3485.0, "NOTES": null, "sunrise": 2010, "sunset": 9999 }, "geometry": { "type": "Point", "coordinates": [ -84.351659626587008, 33.618331763746703 ] } },
{ "type": "Feature", "properties": { "NAME": "Beulah Heights University", "ADDRESS": "892 Berne Street SE", "CITY": "Atlanta", "ZIP": 30316.0, "STUDENTS10": 808.0, "TAZ05": 75.0, "MTAZ10": 850.0, "NOTES": null, "sunrise": 2010, "sunset": 9999 }, "geometry": { "type": "Point", "coordinates": [ -84.357676066993903, 33.736916003643621 ] } },
{ "type": "Feature", "properties": { "NAME": "Brenau University\/Fairburn", "ADDRESS": "314 NW Broad Street", "CITY": "Fairburn", "ZIP": 30213.0, "STUDENTS10": 600.0, "TAZ05": 431.0, "MTAZ10": 1205.0, "NOTES": null, "sunrise": 2010, "sunset": 9999 }, "geometry": { "type": "Point", "coordinates": [ -84.573331143953155, 33.571267931128709 ] } },
{ "type": "Feature", "properties": { "NAME": "Brenau University\/Gainesville", "ADDRESS": "500 Washington Street SE", "CITY": "Gainesville", "ZIP": 30501.0, "STUDENTS10": 860.0, "TAZ05": 1953.0, "MTAZ10": 5767.0, "NOTES": null, "sunrise": 2010, "sunset": 9999 }, "geometry": { "type": "Point", "coordinates": [ -83.821915069576519, 34.303280141521405 ] } },
{ "type": "Feature", "properties": { "NAME": "Brenau University\/Norcross", "ADDRESS": "3139 Campus Drive", "CITY": "Norcross", "ZIP": 30071.0, "STUDENTS10": 400.0, "TAZ05": 988.0, "MTAZ10": 2548.0, "NOTES": null, "sunrise": 2010, "sunset": 9999 }, "geometry": { "type": "Point", "coordinates": [ -84.215160674373564, 33.955209833536401 ] } },
{ "type": "Feature", "properties": { "NAME": "Brewton-Parker College", "ADDRESS": "160 Martin Luther King Jr Drive", "CITY": "Newnan", "ZIP": 30263.0, "STUDENTS10": 100.0, "TAZ05": 1585.0, "MTAZ10": 4268.0, "NOTES": null, "sunrise": 2010, "sunset": 9999 }, "geometry": { "type": "Point", "coordinates": [ -84.782019752972502, 33.364805624066769 ] } },
{ "type": "Feature", "properties": { "NAME": "Brown College of Court Reporting", "ADDRESS": "1900 Emery Street NW", "CITY": "Atlanta", "ZIP": 30318.0, "STUDENTS10": 14.0, "TAZ05": 150.0, "MTAZ10": 373.0, "NOTES": null, "sunrise": 2010, "sunset": 9999 }, "geometry": { "type": "Point", "coordinates": [ -84.414935913336834, 33.807870748337614 ] } },
{ "type": "Feature", "properties": { "NAME": "Brown Mackie College\/Atlanta", "ADDRESS": "4370 Peachtree Road NE", "CITY": "Atlanta", "ZIP": 30319.0, "STUDENTS10": 881.0, "TAZ05": 476.0, "MTAZ10": 1355.0, "NOTES": null, "sunrise": 2010, "sunset": 9999 }, "geometry": { "type": "Point", "coordinates": [ -84.333659113361207, 33.871273658374555 ] } },
{ "type": "Feature", "properties": { "NAME": "Carver Bible College", "ADDRESS": "3870 Cascade Road", "CITY": "Atlanta", "ZIP": 30331.0, "STUDENTS10": 108.0, "TAZ05": 118.0, "MTAZ10": 1049.0, "NOTES": null, "sunrise": 2010, "sunset": 9999 }, "geometry": { "type": "Point", "coordinates": [ -84.515402215705748, 33.723223893740915 ] } },
{ "type": "Feature", "properties": { "NAME": "Chattahoochee Technical College\/Austell", "ADDRESS": "1578 Veterans Memorial Highway", "CITY": "Austell", "ZIP": 30106.0, "STUDENTS10": 367.0, "TAZ05": 858.0, "MTAZ10": 2467.0, "NOTES": null, "sunrise": 2010, "sunset": 9999 }, "geometry": { "type": "Point", "coordinates": [ -84.599620014228861, 33.816673594342681 ] } },
{ "type": "Feature", "properties": { "NAME": "Chattahoochee Technical College\/Canton", "ADDRESS": "1645 Bluffs Parkway", "CITY": "Canton", "ZIP": 30114.0, "STUDENTS10": 0.0, "TAZ05": 1490.0, "MTAZ10": 4092.0, "NOTES": "New Location - April 2011_506 students in 2011", "sunrise": 2011, "sunset": 9999 }, "geometry": { "type": "Point", "coordinates": [ -84.471567980131866, 34.268054042023664 ] } },
{ "type": "Feature", "properties": { "NAME": "Chattahoochee Technical College\/Marietta", "ADDRESS": "980 South Cobb Drive", "CITY": "Marietta", "ZIP": 30060.0, "STUDENTS10": 5604.0, "TAZ05": 798.0, "MTAZ10": 2155.0, "NOTES": null, "sunrise": 2010, "sunset": 9999 }, "geometry": { "type": "Point", "coordinates": [ -84.552905760395049, 33.929065087715209 ] } },
{ "type": "Feature", "properties": { "NAME": "Chattahoochee Technical College\/Mountain View", "ADDRESS": "2680 Gordy Parkway", "CITY": "Marietta", "ZIP": 30066.0, "STUDENTS10": 1107.0, "TAZ05": 711.0, "MTAZ10": 2222.0, "NOTES": null, "sunrise": 2010, "sunset": 9999 }, "geometry": { "type": "Point", "coordinates": [ -84.467602025581442, 34.034417184689453 ] } },
{ "type": "Feature", "properties": { "NAME": "Chattahoochee Technical College\/North Metro", "ADDRESS": "5198 Ross Road SE", "CITY": "Acworth", "ZIP": 30102.0, "STUDENTS10": 3871.0, "TAZ05": 1717.0, "MTAZ10": 4942.0, "NOTES": null, "sunrise": 2010, "sunset": 9999 }, "geometry": { "type": "Point", "coordinates": [ -84.669279274999951, 34.084251800875577 ] } },
{ "type": "Feature", "properties": { "NAME": "Chattahoochee Technical College\/Paulding", "ADDRESS": "400 Nathan Dean Boulevard", "CITY": "Dallas", "ZIP": 30157.0, "STUDENTS10": 1531.0, "TAZ05": 1634.0, "MTAZ10": 4702.0, "NOTES": null, "sunrise": 2010, "sunset": 9999 }, "geometry": { "type": "Point", "coordinates": [ -84.826402310575531, 33.910588143843995 ] } },
{ "type": "Feature", "properties": { "NAME": "Chattahoochee Technical College\/Woodstock", "ADDRESS": "8371 Main Street", "CITY": "Woodstock", "ZIP": 30188.0, "STUDENTS10": 657.0, "TAZ05": 1533.0, "MTAZ10": 4168.0, "NOTES": null, "sunrise": 2010, "sunset": 9999 }, "geometry": { "type": "Point", "coordinates": [ -84.517533035070016, 34.104208652229261 ] } },
{ "type": "Feature", "properties": { "NAME": "Clark Atlanta University", "ADDRESS": "223 James P Brawley Drive SW", "CITY": "Atlanta", "ZIP": 30314.0, "STUDENTS10": 3941.0, "TAZ05": 61.0, "MTAZ10": 973.0, "NOTES": null, "sunrise": 2010, "sunset": 9999 }, "geometry": { "type": "Point", "coordinates": [ -84.41257586441921, 33.750791176777575 ] } },
{ "type": "Feature", "properties": { "NAME": "Clayton State University", "ADDRESS": "2000 Clayton State Boulevard", "CITY": "Morrow", "ZIP": 30260.0, "STUDENTS10": 6604.0, "TAZ05": 1344.0, "MTAZ10": 3526.0, "NOTES": null, "sunrise": 2010, "sunset": 9999 }, "geometry": { "type": "Point", "coordinates": [ -84.32978632885299, 33.59532784176983 ] } },
{ "type": "Feature", "properties": { "NAME": "Clayton State University\/Fayette", "ADDRESS": "100 World Drive", "CITY": "Peachtree City", "ZIP": 30269.0, "STUDENTS10": 0.0, "TAZ05": 1406.0, "MTAZ10": 3696.0, "NOTES": "New Location - August 2011, 800 students in 2011", "sunrise": 2011, "sunset": 9999 }, "geometry": { "type": "Point", "coordinates": [ -84.586964113227623, 33.441837198441981 ] } },
{ "type": "Feature", "properties": { "NAME": "Clayton State University\/Fayette", "ADDRESS": "1200 Commerce Dr", "CITY": "Peachtree City", "ZIP": 30269.0, "STUDENTS10": 80.0, "TAZ05": 1405.0, "MTAZ10": 3643.0, "NOTES": "Move to new location in 2011", "sunrise": 2010, "sunset": 2010 }, "geometry": { "type": "Point", "coordinates": [ -84.591894769167638, 33.399899114405066 ] } },
{ "type": "Feature", "properties": { "NAME": "Clayton State University\/Henry", "ADDRESS": "401 East Tomlinson Street", "CITY": "McDonough", "ZIP": 30253.0, "STUDENTS10": 100.0, "TAZ05": 1298.0, "MTAZ10": 3316.0, "NOTES": null, "sunrise": 2010, "sunset": 9999 }, "geometry": { "type": "Point", "coordinates": [ -84.133483851117248, 33.44968188424069 ] } },
{ "type": "Feature", "properties": { "NAME": "Cobb Beauty College", "ADDRESS": "3096 Cherokee Street", "CITY": "Kennesaw", "ZIP": 30144.0, "STUDENTS10": 49.0, "TAZ05": 675.0, "MTAZ10": 2005.0, "NOTES": null, "sunrise": 2010, "sunset": 9999 }, "geometry": { "type": "Point", "coordinates": [ -84.608941592960974, 34.029281562013708 ] } },
{ "type": "Feature", "properties": { "NAME": "Columbia Theological Seminary", "ADDRESS": "701 South Columbia Drive", "CITY": "Decatur", "ZIP": 30030.0, "STUDENTS10": 263.0, "TAZ05": 573.0, "MTAZ10": 1625.0, "NOTES": null, "sunrise": 2010, "sunset": 9999 }, "geometry": { "type": "Point", "coordinates": [ -84.281158973741441, 33.76380377117183 ] } },
{ "type": "Feature", "properties": { "NAME": "DeVry University\/Alpharetta", "ADDRESS": "2555 Northwinds Parkway", "CITY": "Alpharetta", "ZIP": 30004.0, "STUDENTS10": 1078.0, "TAZ05": 324.0, "MTAZ10": 70.0, "NOTES": null, "sunrise": 2010, "sunset": 9999 }, "geometry": { "type": "Point", "coordinates": [ -84.280701230695811, 34.058634686609764 ] } },
{ "type": "Feature", "properties": { "NAME": "DeVry University\/Buckhead", "ADDRESS": "3575 Piedmont Road NE", "CITY": "Atlanta", "ZIP": 30305.0, "STUDENTS10": 464.0, "TAZ05": 1652.0, "MTAZ10": 302.0, "NOTES": null, "sunrise": 2010, "sunset": 9999 }, "geometry": { "type": "Point", "coordinates": [ -84.378934176840787, 33.85384179370822 ] } },
{ "type": "Feature", "properties": { "NAME": "DeVry University\/Cobb-Galleria", "ADDRESS": "100 Galleria Parkway SE", "CITY": "Atlanta", "ZIP": 30339.0, "STUDENTS10": 464.0, "TAZ05": 749.0, "MTAZ10": 2329.0, "NOTES": null, "sunrise": 2010, "sunset": 9999 }, "geometry": { "type": "Point", "coordinates": [ -84.462487048257728, 33.885243738359037 ] } },
{ "type": "Feature", "properties": { "NAME": "DeVry University\/Decatur", "ADDRESS": "1 West Court Square", "CITY": "Decatur", "ZIP": 30030.0, "STUDENTS10": 3922.0, "TAZ05": 570.0, "MTAZ10": 1605.0, "NOTES": null, "sunrise": 2010, "sunset": 9999 }, "geometry": { "type": "Point", "coordinates": [ -84.297210631312126, 33.77508429093244 ] } },
{ "type": "Feature", "properties": { "NAME": "DeVry University\/Duluth", "ADDRESS": "3505 Koger Boulevard", "CITY": "Duluth", "ZIP": 30096.0, "STUDENTS10": 464.0, "TAZ05": 1098.0, "MTAZ10": 2767.0, "NOTES": null, "sunrise": 2010, "sunset": 9999 }, "geometry": { "type": "Point", "coordinates": [ -84.123364378159181, 33.949642337134279 ] } },
{ "type": "Feature", "properties": { "NAME": "DeVry University\/Perimeter", "ADDRESS": "2 Ravinia Drive", "CITY": "Atlanta", "ZIP": 30346.0, "STUDENTS10": 464.0, "TAZ05": 483.0, "MTAZ10": 1317.0, "NOTES": null, "sunrise": 2010, "sunset": 9999 }, "geometry": { "type": "Point", "coordinates": [ -84.335838360650172, 33.922048324600283 ] } },
{ "type": "Feature", "properties": { "NAME": "DeVry University\/Stockbridge", "ADDRESS": "675 Southcrest Parkway", "CITY": "Stockbridge", "ZIP": 30281.0, "STUDENTS10": 464.0, "TAZ05": 1253.0, "MTAZ10": 3146.0, "NOTES": null, "sunrise": 2010, "sunset": 9999 }, "geometry": { "type": "Point", "coordinates": [ -84.278078230362198, 33.543643643165353 ] } },
{ "type": "Feature", "properties": { "NAME": "Embry-Riddle Aeronautical University\/Marietta", "ADDRESS": "1395 South Marietta Parkway", "CITY": "Marietta", "ZIP": 30067.0, "STUDENTS10": 100.0, "TAZ05": 761.0, "MTAZ10": 2311.0, "NOTES": null, "sunrise": 2010, "sunset": 9999 }, "geometry": { "type": "Point", "coordinates": [ -84.512956520604007, 33.941437620240798 ] } },
{ "type": "Feature", "properties": { "NAME": "Emory University", "ADDRESS": "201 Dowman Drive", "CITY": "Atlanta", "ZIP": 30322.0, "STUDENTS10": 12531.0, "TAZ05": 567.0, "MTAZ10": 1583.0, "NOTES": null, "sunrise": 2010, "sunset": 9999 }, "geometry": { "type": "Point", "coordinates": [ -84.324052128315344, 33.792725384751513 ] } },
{ "type": "Feature", "properties": { "NAME": "Emory University\/Oxford", "ADDRESS": "100 Hamill Street", "CITY": "Oxford", "ZIP": 30054.0, "STUDENTS10": 850.0, "TAZ05": 1831.0, "MTAZ10": 5330.0, "NOTES": null, "sunrise": 2010, "sunset": 9999 }, "geometry": { "type": "Point", "coordinates": [ -83.870908641232575, 33.619801607362334 ] } },
{ "type": "Feature", "properties": { "NAME": "Empire Beauty School\/Dunwoody", "ADDRESS": "4719 Ashford Dunwoody Road", "CITY": "Dunwoody", "ZIP": 30338.0, "STUDENTS10": 171.0, "TAZ05": 483.0, "MTAZ10": 1316.0, "NOTES": null, "sunrise": 2010, "sunset": 9999 }, "geometry": { "type": "Point", "coordinates": [ -84.332288383600428, 33.932002238954198 ] } },
{ "type": "Feature", "properties": { "NAME": "Empire Beauty School\/Gwinnett", "ADDRESS": "1455 Pleasant Hill Road", "CITY": "Lawrenceville", "ZIP": 30044.0, "STUDENTS10": 138.0, "TAZ05": 1109.0, "MTAZ10": 2760.0, "NOTES": null, "sunrise": 2010, "sunset": 9999 }, "geometry": { "type": "Point", "coordinates": [ -84.121782824111236, 33.939260964945035 ] } },
{ "type": "Feature", "properties": { "NAME": "Empire Beauty School\/Kennesaw", "ADDRESS": "425 Ernest Barrett Parkway", "CITY": "Kennesaw", "ZIP": 30144.0, "STUDENTS10": 155.0, "TAZ05": 786.0, "MTAZ10": 2202.0, "NOTES": null, "sunrise": 2010, "sunset": 9999 }, "geometry": { "type": "Point", "coordinates": [ -84.561330072960615, 34.011536877511155 ] } },
{ "type": "Feature", "properties": { "NAME": "Empire Beauty School\/Morrow", "ADDRESS": "1958 Mt Zion Road", "CITY": "Morrow", "ZIP": 30260.0, "STUDENTS10": 100.0, "TAZ05": 1351.0, "MTAZ10": 3540.0, "NOTES": null, "sunrise": 2010, "sunset": 9999 }, "geometry": { "type": "Point", "coordinates": [ -84.325109160859014, 33.566741340099519 ] } },
{ "type": "Feature", "properties": { "NAME": "Everest Institute\/DeKalb", "ADDRESS": "2460 Wesley Chapel Road", "CITY": "Decatur", "ZIP": 30035.0, "STUDENTS10": 1246.0, "TAZ05": 585.0, "MTAZ10": 1777.0, "NOTES": null, "sunrise": 2010, "sunset": 9999 }, "geometry": { "type": "Point", "coordinates": [ -84.211652005600868, 33.715645317436362 ] } },
{ "type": "Feature", "properties": { "NAME": "Everest Institute\/Jonesboro", "ADDRESS": "6431 Tara Boulevard", "CITY": "Jonesboro", "ZIP": 30236.0, "STUDENTS10": 929.0, "TAZ05": 1337.0, "MTAZ10": 3449.0, "NOTES": null, "sunrise": 2010, "sunset": 9999 }, "geometry": { "type": "Point", "coordinates": [ -84.376058449602681, 33.577977724549569 ] } },
{ "type": "Feature", "properties": { "NAME": "Everest Institute\/Marietta", "ADDRESS": "1600 Terrell Mill Road", "CITY": "Marietta", "ZIP": 30067.0, "STUDENTS10": 479.0, "TAZ05": 765.0, "MTAZ10": 2314.0, "NOTES": null, "sunrise": 2010, "sunset": 9999 }, "geometry": { "type": "Point", "coordinates": [ -84.481648935041207, 33.913112114799873 ] } },
{ "type": "Feature", "properties": { "NAME": "Everest Institute\/Norcross", "ADDRESS": "1750 Beaver Ruin Road", "CITY": "Norcross", "ZIP": 30093.0, "STUDENTS10": 901.0, "TAZ05": 1027.0, "MTAZ10": 2583.0, "NOTES": null, "sunrise": 2010, "sunset": 9999 }, "geometry": { "type": "Point", "coordinates": [ -84.155344474002959, 33.934073847605255 ] } },
{ "type": "Feature", "properties": { "NAME": "Everest Institute\/West Atlanta", "ADDRESS": "2841 Greenbriar Parkway SW", "CITY": "Atlanta", "ZIP": 30331.0, "STUDENTS10": 400.0, "TAZ05": 114.0, "MTAZ10": 1069.0, "NOTES": null, "sunrise": 2010, "sunset": 9999 }, "geometry": { "type": "Point", "coordinates": [ -84.496606993240462, 33.689145508869998 ] } },
{ "type": "Feature", "properties": { "NAME": "Fayette Beauty Academy", "ADDRESS": "386 North Glynn Street", "CITY": "Fayetteville", "ZIP": 30214.0, "STUDENTS10": 35.0, "TAZ05": 1422.0, "MTAZ10": 3768.0, "NOTES": null, "sunrise": 2010, "sunset": 9999 }, "geometry": { "type": "Point", "coordinates": [ -84.455349808420749, 33.455872306601293 ] } },
{ "type": "Feature", "properties": { "NAME": "Fortis College", "ADDRESS": "2108 Cobb Parkway", "CITY": "Smyrna", "ZIP": 30080.0, "STUDENTS10": 704.0, "TAZ05": 829.0, "MTAZ10": 2344.0, "NOTES": null, "sunrise": 2010, "sunset": 9999 }, "geometry": { "type": "Point", "coordinates": [ -84.488653623186892, 33.901355644311906 ] } },
{ "type": "Feature", "properties": { "NAME": "Gainesville State College", "ADDRESS": "3820 Mundy Mill Road", "CITY": "Gainesville", "ZIP": 30503.0, "STUDENTS10": 8883.0, "TAZ05": 1980.0, "MTAZ10": 5811.0, "NOTES": null, "sunrise": 2010, "sunset": 9999 }, "geometry": { "type": "Point", "coordinates": [ -83.867159002659093, 34.235137613547124 ] } },
{ "type": "Feature", "properties": { "NAME": "Georgia Career Institute", "ADDRESS": "1820 Highway 20", "CITY": "Conyers", "ZIP": 30013.0, "STUDENTS10": 1123.0, "TAZ05": 1228.0, "MTAZ10": 3083.0, "NOTES": null, "sunrise": 2010, "sunset": 9999 }, "geometry": { "type": "Point", "coordinates": [ -84.013240493579758, 33.642110808344441 ] } },
{ "type": "Feature", "properties": { "NAME": "Georgia Gwinnett College", "ADDRESS": "1000 University Center Lane", "CITY": "Lawrenceville", "ZIP": 30043.0, "STUDENTS10": 5380.0, "TAZ05": 1080.0, "MTAZ10": 2936.0, "NOTES": null, "sunrise": 2010, "sunset": 9999 }, "geometry": { "type": "Point", "coordinates": [ -84.002144698591309, 33.979799108440574 ] } },
{ "type": "Feature", "properties": { "NAME": "Georgia Highlands College\/Cartersville", "ADDRESS": "5441 Highway 20 NE", "CITY": "Cartersville", "ZIP": 30121.0, "STUDENTS10": 2204.0, "TAZ05": 1705.0, "MTAZ10": 4864.0, "NOTES": null, "sunrise": 2010, "sunset": 9999 }, "geometry": { "type": "Point", "coordinates": [ -84.78299996601443, 34.206565088206752 ] } },
{ "type": "Feature", "properties": { "NAME": "Georgia Highlands College\/Douglasville", "ADDRESS": "5901 Stewart Parkway", "CITY": "Douglasville", "ZIP": 30135.0, "STUDENTS10": 192.0, "TAZ05": 1459.0, "MTAZ10": 3853.0, "NOTES": null, "sunrise": 2010, "sunset": 9999 }, "geometry": { "type": "Point", "coordinates": [ -84.769389156999637, 33.718658404871512 ] } },
{ "type": "Feature", "properties": { "NAME": "Georgia Highlands College\/Marietta", "ADDRESS": "1100 South Marietta Parkway", "CITY": "Marietta", "ZIP": 30060.0, "STUDENTS10": 994.0, "TAZ05": 794.0, "MTAZ10": 2167.0, "NOTES": null, "sunrise": 2010, "sunset": 9999 }, "geometry": { "type": "Point", "coordinates": [ -84.521053510221648, 33.939173414351778 ] } },
{ "type": "Feature", "properties": { "NAME": "Georgia Highlands College\/Paulding", "ADDRESS": "25 Courthouse Square", "CITY": "Dallas", "ZIP": 30132.0, "STUDENTS10": 306.0, "TAZ05": 1631.0, "MTAZ10": 4706.0, "NOTES": null, "sunrise": 2010, "sunset": 9999 }, "geometry": { "type": "Point", "coordinates": [ -84.841813340926024, 33.923782284772507 ] } },
{ "type": "Feature", "properties": { "NAME": "Georgia Institute of Technology", "ADDRESS": "25 North Avenue NW", "CITY": "Atlanta", "ZIP": 30332.0, "STUDENTS10": 20720.0, "TAZ05": 34.0, "MTAZ10": 484.0, "NOTES": null, "sunrise": 2010, "sunset": 9999 }, "geometry": { "type": "Point", "coordinates": [ -84.398405800082799, 33.777053645114016 ] } },
{ "type": "Feature", "properties": { "NAME": "Georgia Military College\/Fairburn", "ADDRESS": "320 NW Broad Street", "CITY": "Fairburn", "ZIP": 30213.0, "STUDENTS10": 815.0, "TAZ05": 431.0, "MTAZ10": 1205.0, "NOTES": null, "sunrise": 2010, "sunset": 9999 }, "geometry": { "type": "Point", "coordinates": [ -84.572574653357648, 33.571635904875734 ] } },
{ "type": "Feature", "properties": { "NAME": "Georgia Perimeter College\/Alpharetta", "ADDRESS": "3705 Brookside Parkway", "CITY": "Alpharetta", "ZIP": 30022.0, "STUDENTS10": 1604.0, "TAZ05": 323.0, "MTAZ10": 122.0, "NOTES": null, "sunrise": 2010, "sunset": 9999 }, "geometry": { "type": "Point", "coordinates": [ -84.255208773995321, 34.061057386098589 ] } },
{ "type": "Feature", "properties": { "NAME": "Georgia Perimeter College\/Clarkston", "ADDRESS": "555 North Indian Creek Drive", "CITY": "Clarkston", "ZIP": 30021.0, "STUDENTS10": 7331.0, "TAZ05": 555.0, "MTAZ10": 1524.0, "NOTES": null, "sunrise": 2010, "sunset": 9999 }, "geometry": { "type": "Point", "coordinates": [ -84.234292659281238, 33.792745411172021 ] } },
{ "type": "Feature", "properties": { "NAME": "Georgia Perimeter College\/Decatur", "ADDRESS": "3251 Panthersville Road", "CITY": "Decatur", "ZIP": 30034.0, "STUDENTS10": 3916.0, "TAZ05": 612.0, "MTAZ10": 1931.0, "NOTES": null, "sunrise": 2010, "sunset": 9999 }, "geometry": { "type": "Point", "coordinates": [ -84.274532938527784, 33.688824730021146 ] } },
{ "type": "Feature", "properties": { "NAME": "Georgia Perimeter College\/Dunwoody", "ADDRESS": "2101 Womack Road", "CITY": "Dunwoody", "ZIP": 30338.0, "STUDENTS10": 9347.0, "TAZ05": 489.0, "MTAZ10": 1303.0, "NOTES": null, "sunrise": 2010, "sunset": 9999 }, "geometry": { "type": "Point", "coordinates": [ -84.303128649069606, 33.94160867941649 ] } },
{ "type": "Feature", "properties": { "NAME": "Georgia Perimeter College\/Newton", "ADDRESS": "239 Cedar Lane", "CITY": "Covington", "ZIP": 30014.0, "STUDENTS10": 2841.0, "TAZ05": 1835.0, "MTAZ10": 5401.0, "NOTES": null, "sunrise": 2010, "sunset": 9999 }, "geometry": { "type": "Point", "coordinates": [ -83.75706311609899, 33.607029851871147 ] } },
{ "type": "Feature", "properties": { "NAME": "Georgia Piedmont Technical College\/DeKalb", "ADDRESS": "495 North Indian Creek Drive", "CITY": "Clarkston", "ZIP": 30021.0, "STUDENTS10": 4355.0, "TAZ05": 555.0, "MTAZ10": 1524.0, "NOTES": null, "sunrise": 2010, "sunset": 9999 }, "geometry": { "type": "Point", "coordinates": [ -84.234453088374536, 33.789882836361187 ] } },
{ "type": "Feature", "properties": { "NAME": "Georgia Piedmont Technical College\/Newton", "ADDRESS": "16200 Alcovy Road", "CITY": "Covington", "ZIP": 30014.0, "STUDENTS10": 500.0, "TAZ05": 1832.0, "MTAZ10": 5291.0, "NOTES": null, "sunrise": 2010, "sunset": 9999 }, "geometry": { "type": "Point", "coordinates": [ -83.824324227668228, 33.630068785016931 ] } },
{ "type": "Feature", "properties": { "NAME": "Georgia State University\/Alpharetta", "ADDRESS": "3775 Brookside Parkway", "CITY": "Alpharetta", "ZIP": 30022.0, "STUDENTS10": 1333.0, "TAZ05": 323.0, "MTAZ10": 122.0, "NOTES": null, "sunrise": 2010, "sunset": 9999 }, "geometry": { "type": "Point", "coordinates": [ -84.25305258177292, 34.060457584656064 ] } },
{ "type": "Feature", "properties": { "NAME": "Georgia State University\/Brookhaven", "ADDRESS": "4362 Peachtree Road NE", "CITY": "Atlanta", "ZIP": 30319.0, "STUDENTS10": 1333.0, "TAZ05": 476.0, "MTAZ10": 1355.0, "NOTES": null, "sunrise": 2010, "sunset": 9999 }, "geometry": { "type": "Point", "coordinates": [ -84.33377985552751, 33.870598035790259 ] } },
{ "type": "Feature", "properties": { "NAME": "Georgia State University\/Buckhead", "ADDRESS": "3348 Peachtree Road NE", "CITY": "Atlanta", "ZIP": 30326.0, "STUDENTS10": 1333.0, "TAZ05": 1652.0, "MTAZ10": 303.0, "NOTES": null, "sunrise": 2010, "sunset": 9999 }, "geometry": { "type": "Point", "coordinates": [ -84.369831030099661, 33.848370693803666 ] } },
{ "type": "Feature", "properties": { "NAME": "Georgia State University\/Downtown", "ADDRESS": "33 Gilmer Street SE", "CITY": "Atlanta", "ZIP": 30303.0, "STUDENTS10": 23533.0, "TAZ05": 16.0, "MTAZ10": 665.0, "NOTES": null, "sunrise": 2010, "sunset": 9999 }, "geometry": { "type": "Point", "coordinates": [ -84.385629854999976, 33.753454806871531 ] } },
{ "type": "Feature", "properties": { "NAME": "Georgia State University\/Downtown Robinson School", "ADDRESS": "35 Broad Street NW", "CITY": "Atlanta", "ZIP": 30303.0, "STUDENTS10": 1333.0, "TAZ05": 12.0, "MTAZ10": 682.0, "NOTES": null, "sunrise": 2010, "sunset": 9999 }, "geometry": { "type": "Point", "coordinates": [ -84.389881060507633, 33.755161804037215 ] } },
{ "type": "Feature", "properties": { "NAME": "Georgia State University\/Henry", "ADDRESS": "125 Westridge Industrial Boulevard", "CITY": "McDonough", "ZIP": 30253.0, "STUDENTS10": 1333.0, "TAZ05": 1310.0, "MTAZ10": 3293.0, "NOTES": null, "sunrise": 2010, "sunset": 9999 }, "geometry": { "type": "Point", "coordinates": [ -84.191699847617016, 33.415222236877099 ] } },
{ "type": "Feature", "properties": { "NAME": "Georgia State University\/Peachtree Dunwoody", "ADDRESS": "5909 Peachtree Dunwoody Road NE", "CITY": "Atlanta", "ZIP": 30328.0, "STUDENTS10": 1333.0, "TAZ05": 203.0, "MTAZ10": 247.0, "NOTES": null, "sunrise": 2010, "sunset": 9999 }, "geometry": { "type": "Point", "coordinates": [ -84.349467059075934, 33.917182844181909 ] } },
{ "type": "Feature", "properties": { "NAME": "Grady Health System Professional Schools", "ADDRESS": "80 Jesse Hill Jr Drive SE", "CITY": "Atlanta", "ZIP": 30303.0, "STUDENTS10": 85.0, "TAZ05": 58.0, "MTAZ10": 658.0, "NOTES": null, "sunrise": 2010, "sunset": 9999 }, "geometry": { "type": "Point", "coordinates": [ -84.382278894072911, 33.751536991640258 ] } },
{ "type": "Feature", "properties": { "NAME": "Gupton-Jones College of Funeral Service", "ADDRESS": "5141 Snapfinger Woods Drive", "CITY": "Decatur", "ZIP": 30035.0, "STUDENTS10": 244.0, "TAZ05": 586.0, "MTAZ10": 1799.0, "NOTES": null, "sunrise": 2010, "sunset": 9999 }, "geometry": { "type": "Point", "coordinates": [ -84.179912376300024, 33.710648053850932 ] } },
{ "type": "Feature", "properties": { "NAME": "Gwinnett College\/Lilburn", "ADDRESS": "4230 Highway 29", "CITY": "Lilburn", "ZIP": 30047.0, "STUDENTS10": 435.0, "TAZ05": 1010.0, "MTAZ10": 2592.0, "NOTES": null, "sunrise": 2010, "sunset": 9999 }, "geometry": { "type": "Point", "coordinates": [ -84.121642205766932, 33.901351632111584 ] } },
{ "type": "Feature", "properties": { "NAME": "Gwinnett College\/Sandy Springs", "ADDRESS": "6690 Roswell Road NE", "CITY": "Sandy Springs", "ZIP": 30328.0, "STUDENTS10": 146.0, "TAZ05": 212.0, "MTAZ10": 224.0, "NOTES": null, "sunrise": 2010, "sunset": 9999 }, "geometry": { "type": "Point", "coordinates": [ -84.378804691063664, 33.937624297687329 ] } },
{ "type": "Feature", "properties": { "NAME": "Gwinnett Technical College\/Gwinnett Place Mall", "ADDRESS": "3340 Satellite Boulevard", "CITY": "Duluth", "ZIP": 30096.0, "STUDENTS10": 100.0, "TAZ05": 959.0, "MTAZ10": 2818.0, "NOTES": null, "sunrise": 2010, "sunset": 9999 }, "geometry": { "type": "Point", "coordinates": [ -84.126730346647975, 33.961460390903007 ] } },
{ "type": "Feature", "properties": { "NAME": "Gwinnett Technical College\/Lawrenceville", "ADDRESS": "5150 Sugarloaf Parkway", "CITY": "Lawrenceville", "ZIP": 30043.0, "STUDENTS10": 7000.0, "TAZ05": 1066.0, "MTAZ10": 2778.0, "NOTES": null, "sunrise": 2010, "sunset": 9999 }, "geometry": { "type": "Point", "coordinates": [ -84.066015078551686, 33.962816812749672 ] } },
{ "type": "Feature", "properties": { "NAME": "Herzing University", "ADDRESS": "3393 Peachtree Road NE", "CITY": "Atlanta", "ZIP": 30326.0, "STUDENTS10": 630.0, "TAZ05": 167.0, "MTAZ10": 346.0, "NOTES": null, "sunrise": 2010, "sunset": 9999 }, "geometry": { "type": "Point", "coordinates": [ -84.362335167826672, 33.845377929023542 ] } },
{ "type": "Feature", "properties": { "NAME": "Interactive College of Technology\/Chamblee", "ADDRESS": "5303 New Peachtree Road", "CITY": "Chamblee", "ZIP": 30341.0, "STUDENTS10": 367.0, "TAZ05": 479.0, "MTAZ10": 1391.0, "NOTES": null, "sunrise": 2010, "sunset": 9999 }, "geometry": { "type": "Point", "coordinates": [ -84.303043447580777, 33.887686551695211 ] } },
{ "type": "Feature", "properties": { "NAME": "Interactive College of Technology\/Gainesville", "ADDRESS": "2323 Browns Bridge Rd", "CITY": "Gainesville", "ZIP": 30504.0, "STUDENTS10": 32.0, "TAZ05": 1965.0, "MTAZ10": 5736.0, "NOTES": null, "sunrise": 2010, "sunset": 9999 }, "geometry": { "type": "Point", "coordinates": [ -83.855382119527491, 34.27640667220853 ] } },
{ "type": "Feature", "properties": { "NAME": "Interactive College of Technology\/Morrow", "ADDRESS": "1580 Southlake Parkway", "CITY": "Morrow", "ZIP": 30260.0, "STUDENTS10": 19.0, "TAZ05": 1351.0, "MTAZ10": 3541.0, "NOTES": null, "sunrise": 2010, "sunset": 9999 }, "geometry": { "type": "Point", "coordinates": [ -84.336398308233143, 33.572733890329687 ] } },
{ "type": "Feature", "properties": { "NAME": "Interdenominational Theological Center", "ADDRESS": "700 Martin Luther King Jr Drive SW", "CITY": "Atlanta", "ZIP": 30314.0, "STUDENTS10": 411.0, "TAZ05": 62.0, "MTAZ10": 972.0, "NOTES": null, "sunrise": 2010, "sunset": 9999 }, "geometry": { "type": "Point", "coordinates": [ -84.409665734159404, 33.753647084702777 ] } },
{ "type": "Feature", "properties": { "NAME": "International School of Skin, Nailcare & Massage Therapy", "ADDRESS": "5600 Roswell Road NE", "CITY": "Atlanta", "ZIP": 30342.0, "STUDENTS10": 356.0, "TAZ05": 223.0, "MTAZ10": 262.0, "NOTES": null, "sunrise": 2010, "sunset": 9999 }, "geometry": { "type": "Point", "coordinates": [ -84.380080588600038, 33.908093359954933 ] } },
{ "type": "Feature", "properties": { "NAME": "ITT Technical Institute\/Atlanta", "ADDRESS": "485 Oak Place", "CITY": "Forest Park", "ZIP": 30297.0, "STUDENTS10": 706.0, "TAZ05": 1325.0, "MTAZ10": 3400.0, "NOTES": null, "sunrise": 2010, "sunset": 9999 }, "geometry": { "type": "Point", "coordinates": [ -84.405249806449405, 33.612868041475025 ] } },
{ "type": "Feature", "properties": { "NAME": "ITT Technical Institute\/Duluth", "ADDRESS": "10700 Abbotts Bridge Road", "CITY": "Duluth", "ZIP": 30097.0, "STUDENTS10": 675.0, "TAZ05": 337.0, "MTAZ10": 102.0, "NOTES": null, "sunrise": 2010, "sunset": 9999 }, "geometry": { "type": "Point", "coordinates": [ -84.176490265999959, 34.042564704875076 ] } },
{ "type": "Feature", "properties": { "NAME": "ITT Technical Institute\/Kennesaw", "ADDRESS": "2065 ITT Tech Way", "CITY": "Kennesaw", "ZIP": 30144.0, "STUDENTS10": 570.0, "TAZ05": 679.0, "MTAZ10": 2010.0, "NOTES": null, "sunrise": 2010, "sunset": 9999 }, "geometry": { "type": "Point", "coordinates": [ -84.611535240905866, 34.046675189483864 ] } },
{ "type": "Feature", "properties": { "NAME": "Iverson Business School", "ADDRESS": "6685 Peachtree Industrial Boulevard", "CITY": "Atlanta", "ZIP": 30360.0, "STUDENTS10": 140.0, "TAZ05": 503.0, "MTAZ10": 1406.0, "NOTES": null, "sunrise": 2010, "sunset": 9999 }, "geometry": { "type": "Point", "coordinates": [ -84.271637793084238, 33.927259118217854 ] } },
{ "type": "Feature", "properties": { "NAME": "Kennesaw State University", "ADDRESS": "1000 Chastain Road", "CITY": "Kennesaw", "ZIP": 30144.0, "STUDENTS10": 23452.0, "TAZ05": 662.0, "MTAZ10": 2003.0, "NOTES": null, "sunrise": 2010, "sunset": 9999 }, "geometry": { "type": "Point", "coordinates": [ -84.581739458978333, 34.038224338429046 ] } },
{ "type": "Feature", "properties": { "NAME": "Lake Lanier School of Massage", "ADDRESS": "675 E E Butler Parkway", "CITY": "Gainesville", "ZIP": 30501.0, "STUDENTS10": 126.0, "TAZ05": 1953.0, "MTAZ10": 5768.0, "NOTES": null, "sunrise": 2010, "sunset": 9999 }, "geometry": { "type": "Point", "coordinates": [ -83.818450185530907, 34.296511069106572 ] } },
{ "type": "Feature", "properties": { "NAME": "Lanier Technical College\/Cumming", "ADDRESS": "7745 Majors Road", "CITY": "Cumming", "ZIP": 30041.0, "STUDENTS10": 1029.0, "TAZ05": 1616.0, "MTAZ10": 4612.0, "NOTES": null, "sunrise": 2010, "sunset": 9999 }, "geometry": { "type": "Point", "coordinates": [ -84.184893060723752, 34.149706630289131 ] } },
{ "type": "Feature", "properties": { "NAME": "Lanier Technical College\/Oakwood", "ADDRESS": "2990 Landrum Education Drive", "CITY": "Oakwood", "ZIP": 30566.0, "STUDENTS10": 2785.0, "TAZ05": 1980.0, "MTAZ10": 5811.0, "NOTES": null, "sunrise": 2010, "sunset": 9999 }, "geometry": { "type": "Point", "coordinates": [ -83.864097536600255, 34.235855313469727 ] } },
{ "type": "Feature", "properties": { "NAME": "Lanier Technical College\/Winder", "ADDRESS": "89 E Athens Street", "CITY": "Winder", "ZIP": 30680.0, "STUDENTS10": 300.0, "TAZ05": 1905.0, "MTAZ10": 5574.0, "NOTES": null, "sunrise": 2010, "sunset": 9999 }, "geometry": { "type": "Point", "coordinates": [ -83.71966238988287, 33.99122580710938 ] } },
{ "type": "Feature", "properties": { "NAME": "Laurus Technical Institute\/Decatur", "ADDRESS": "523 Church Street", "CITY": "Decatur", "ZIP": 30030.0, "STUDENTS10": 331.0, "TAZ05": 1676.0, "MTAZ10": 1619.0, "NOTES": null, "sunrise": 2010, "sunset": 9999 }, "geometry": { "type": "Point", "coordinates": [ -84.294454479253559, 33.776554022739532 ] } },
{ "type": "Feature", "properties": { "NAME": "Laurus Technical Institute\/Jonesboro", "ADDRESS": "9540 Tara Boulevard", "CITY": "Jonesboro", "ZIP": 30236.0, "STUDENTS10": 165.0, "TAZ05": 1369.0, "MTAZ10": 3597.0, "NOTES": null, "sunrise": 2010, "sunset": 9999 }, "geometry": { "type": "Point", "coordinates": [ -84.342624464811962, 33.495514087154341 ] } },
{ "type": "Feature", "properties": { "NAME": "Le Cordon Bleu College of Culinary Arts", "ADDRESS": "1927 Lakeside Parkway", "CITY": "Tucker", "ZIP": 30084.0, "STUDENTS10": 1331.0, "TAZ05": 536.0, "MTAZ10": 1456.0, "NOTES": null, "sunrise": 2010, "sunset": 9999 }, "geometry": { "type": "Point", "coordinates": [ -84.240411685232047, 33.839574601809844 ] } },
{ "type": "Feature", "properties": { "NAME": "Life University", "ADDRESS": "1269 Barclay Circle", "CITY": "Marietta", "ZIP": 30060.0, "STUDENTS10": 2437.0, "TAZ05": 794.0, "MTAZ10": 2167.0, "NOTES": null, "sunrise": 2010, "sunset": 9999 }, "geometry": { "type": "Point", "coordinates": [ -84.514609677347096, 33.932710140373743 ] } },
{ "type": "Feature", "properties": { "NAME": "Lincoln College of Technology\/Marietta", "ADDRESS": "2359 Windy Hill Road", "CITY": "Marietta", "ZIP": 30067.0, "STUDENTS10": 652.0, "TAZ05": 747.0, "MTAZ10": 2338.0, "NOTES": null, "sunrise": 2010, "sunset": 9999 }, "geometry": { "type": "Point", "coordinates": [ -84.484016728629499, 33.90464021026397 ] } },
{ "type": "Feature", "properties": { "NAME": "Luther Rice University", "ADDRESS": "3038 Evans Mill Road", "CITY": "Lithonia", "ZIP": 30038.0, "STUDENTS10": 1164.0, "TAZ05": 618.0, "MTAZ10": 1849.0, "NOTES": null, "sunrise": 2010, "sunset": 9999 }, "geometry": { "type": "Point", "coordinates": [ -84.123260435775364, 33.697746795170744 ] } },
{ "type": "Feature", "properties": { "NAME": "Medtech Institute\/Marietta", "ADDRESS": "4501 Circle 75 Parkway", "CITY": "Atlanta", "ZIP": 30339.0, "STUDENTS10": 450.0, "TAZ05": 743.0, "MTAZ10": 2332.0, "NOTES": null, "sunrise": 2010, "sunset": 9999 }, "geometry": { "type": "Point", "coordinates": [ -84.474428638460878, 33.898890773144764 ] } },
{ "type": "Feature", "properties": { "NAME": "Medtech Institute\/Morrow", "ADDRESS": "1396 Southlake Plaza Drive", "CITY": "Morrow", "ZIP": 30260.0, "STUDENTS10": 450.0, "TAZ05": 1338.0, "MTAZ10": 3532.0, "NOTES": null, "sunrise": 2010, "sunset": 9999 }, "geometry": { "type": "Point", "coordinates": [ -84.344798253959596, 33.578892647758167 ] } },
{ "type": "Feature", "properties": { "NAME": "Medtech Institute\/Northlake", "ADDRESS": "4053 LaVista Road", "CITY": "Tucker", "ZIP": 30084.0, "STUDENTS10": 450.0, "TAZ05": 525.0, "MTAZ10": 1442.0, "NOTES": null, "sunrise": 2010, "sunset": 9999 }, "geometry": { "type": "Point", "coordinates": [ -84.251404088299751, 33.843833599001492 ] } },
{ "type": "Feature", "properties": { "NAME": "Mercer University\/Atlanta", "ADDRESS": "3001 Mercer University Drive", "CITY": "Atlanta", "ZIP": 30341.0, "STUDENTS10": 2921.0, "TAZ05": 520.0, "MTAZ10": 1427.0, "NOTES": null, "sunrise": 2010, "sunset": 9999 }, "geometry": { "type": "Point", "coordinates": [ -84.262608810468421, 33.873208332204939 ] } },
{ "type": "Feature", "properties": { "NAME": "Mercer University\/Douglas", "ADDRESS": "975 Blairs Bridge Road", "CITY": "Lithia Springs", "ZIP": 30122.0, "STUDENTS10": 600.0, "TAZ05": 1441.0, "MTAZ10": 3969.0, "NOTES": null, "sunrise": 2010, "sunset": 9999 }, "geometry": { "type": "Point", "coordinates": [ -84.60589905934296, 33.771039771152999 ] } },
{ "type": "Feature", "properties": { "NAME": "Mercer University\/Forsyth", "ADDRESS": "1120 Dahlonega Highway", "CITY": "Cumming", "ZIP": 30040.0, "STUDENTS10": 0.0, "TAZ05": 1609.0, "MTAZ10": 4512.0, "NOTES": "New Location - Spring 2011_100 students in 2011", "sunrise": 2011, "sunset": 9999 }, "geometry": { "type": "Point", "coordinates": [ -84.123541123798404, 34.232451644967909 ] } },
{ "type": "Feature", "properties": { "NAME": "Mercer University\/Henry", "ADDRESS": "160 Henry Parkway", "CITY": "McDonough", "ZIP": 30253.0, "STUDENTS10": 700.0, "TAZ05": 1295.0, "MTAZ10": 3309.0, "NOTES": null, "sunrise": 2010, "sunset": 9999 }, "geometry": { "type": "Point", "coordinates": [ -84.161252369598714, 33.425461408936442 ] } },
{ "type": "Feature", "properties": { "NAME": "Mercer University\/Newnan", "ADDRESS": "160 Martin Luther King Drive√ø", "CITY": "Newnan", "ZIP": 30263.0, "STUDENTS10": 30.0, "TAZ05": 1585.0, "MTAZ10": 4268.0, "NOTES": null, "sunrise": 2010, "sunset": 9999 }, "geometry": { "type": "Point", "coordinates": [ -84.782019752972502, 33.364805624066769 ] } },
{ "type": "Feature", "properties": { "NAME": "Morehouse College", "ADDRESS": "830 Westview Drive SW", "CITY": "Atlanta", "ZIP": 30314.0, "STUDENTS10": 2586.0, "TAZ05": 61.0, "MTAZ10": 975.0, "NOTES": null, "sunrise": 2010, "sunset": 9999 }, "geometry": { "type": "Point", "coordinates": [ -84.415619295422786, 33.748109885433145 ] } },
{ "type": "Feature", "properties": { "NAME": "Morehouse School Of Medicine", "ADDRESS": "720 Westview Drive SW", "CITY": "Atlanta", "ZIP": 30310.0, "STUDENTS10": 329.0, "TAZ05": 67.0, "MTAZ10": 959.0, "NOTES": null, "sunrise": 2010, "sunset": 9999 }, "geometry": { "type": "Point", "coordinates": [ -84.412425505508466, 33.742811107343847 ] } },
{ "type": "Feature", "properties": { "NAME": "Morris Brown College", "ADDRESS": "643 Martin Luther King Jr Drive NW", "CITY": "Atlanta", "ZIP": 30314.0, "STUDENTS10": 100.0, "TAZ05": 62.0, "MTAZ10": 972.0, "NOTES": null, "sunrise": 2010, "sunset": 9999 }, "geometry": { "type": "Point", "coordinates": [ -84.407618970104423, 33.754244292643534 ] } },
{ "type": "Feature", "properties": { "NAME": "Oglethorpe University", "ADDRESS": "4484 Peachtree Road NE", "CITY": "Atlanta", "ZIP": 30319.0, "STUDENTS10": 1155.0, "TAZ05": 476.0, "MTAZ10": 1354.0, "NOTES": null, "sunrise": 2010, "sunset": 9999 }, "geometry": { "type": "Point", "coordinates": [ -84.334339247459084, 33.875891196792317 ] } },
{ "type": "Feature", "properties": { "NAME": "Omnitech Institute", "ADDRESS": "4319 Covington Highway", "CITY": "Decatur", "ZIP": 30035.0, "STUDENTS10": 94.0, "TAZ05": 584.0, "MTAZ10": 1764.0, "NOTES": null, "sunrise": 2010, "sunset": 9999 }, "geometry": { "type": "Point", "coordinates": [ -84.227375930850428, 33.748898664675771 ] } },
{ "type": "Feature", "properties": { "NAME": "Paul Mitchell School\/Alpharetta", "ADDRESS": "1003 Mansell Road", "CITY": "Alpharetta", "ZIP": 30076.0, "STUDENTS10": 216.0, "TAZ05": 236.0, "MTAZ10": 131.0, "NOTES": null, "sunrise": 2010, "sunset": 9999 }, "geometry": { "type": "Point", "coordinates": [ -84.331954177999648, 34.04270905487548 ] } },
{ "type": "Feature", "properties": { "NAME": "Paul Mitchell School\/Atlanta", "ADDRESS": "887 West Marietta Street", "CITY": "Atlanta", "ZIP": 30318.0, "STUDENTS10": 226.0, "TAZ05": 31.0, "MTAZ10": 477.0, "NOTES": null, "sunrise": 2010, "sunset": 9999 }, "geometry": { "type": "Point", "coordinates": [ -84.416137951434848, 33.782273728831207 ] } },
{ "type": "Feature", "properties": { "NAME": "Philadelphia College of Osteopathic Medicine\/Suwanee", "ADDRESS": "625 Old Peachtree Road NW", "CITY": "Suwanee", "ZIP": 30024.0, "STUDENTS10": 100.0, "TAZ05": 1061.0, "MTAZ10": 2799.0, "NOTES": null, "sunrise": 2010, "sunset": 9999 }, "geometry": { "type": "Point", "coordinates": [ -84.061035249356379, 34.009763808726966 ] } },
{ "type": "Feature", "properties": { "NAME": "Point University", "ADDRESS": "2605 Ben Hill Road", "CITY": "East Point", "ZIP": 30344.0, "STUDENTS10": 1023.0, "TAZ05": 459.0, "MTAZ10": 1094.0, "NOTES": "Move to West Point in 2012", "sunrise": 2010, "sunset": 2011 }, "geometry": { "type": "Point", "coordinates": [ -84.476161529442422, 33.685341714313857 ] } },
{ "type": "Feature", "properties": { "NAME": "Portfolio Center", "ADDRESS": "125 Bennett Street NW", "CITY": "Atlanta", "ZIP": 30309.0, "STUDENTS10": 103.0, "TAZ05": 151.0, "MTAZ10": 366.0, "NOTES": null, "sunrise": 2010, "sunset": 9999 }, "geometry": { "type": "Point", "coordinates": [ -84.396105437586414, 33.812196933618644 ] } },
{ "type": "Feature", "properties": { "NAME": "Pro Way Hair School", "ADDRESS": "5684 Memorial Drive", "CITY": "Stone Mountain", "ZIP": 30083.0, "STUDENTS10": 17.0, "TAZ05": 546.0, "MTAZ10": 1498.0, "NOTES": null, "sunrise": 2010, "sunset": 9999 }, "geometry": { "type": "Point", "coordinates": [ -84.205215920722992, 33.801706573133544 ] } },
{ "type": "Feature", "properties": { "NAME": "Profile Institute of Barber-Styling", "ADDRESS": "26 Cleveland Avenue SE", "CITY": "Atlanta", "ZIP": 30315.0, "STUDENTS10": 56.0, "TAZ05": 96.0, "MTAZ10": 875.0, "NOTES": null, "sunrise": 2010, "sunset": 9999 }, "geometry": { "type": "Point", "coordinates": [ -84.388089144323231, 33.68142966519995 ] } },
{ "type": "Feature", "properties": { "NAME": "Reinhardt College", "ADDRESS": "7300 Reinhardt College Circle", "CITY": "Waleska", "ZIP": 30183.0, "STUDENTS10": 1219.0, "TAZ05": 1477.0, "MTAZ10": 4005.0, "NOTES": null, "sunrise": 2010, "sunset": 9999 }, "geometry": { "type": "Point", "coordinates": [ -84.554362322999964, 34.318802992878325 ] } },
{ "type": "Feature", "properties": { "NAME": "Saint Leo University\/Gwinnett", "ADDRESS": "3555 Koger Boulevard", "CITY": "Duluth", "ZIP": 30016.0, "STUDENTS10": 100.0, "TAZ05": 1098.0, "MTAZ10": 2767.0, "NOTES": null, "sunrise": 2010, "sunset": 9999 }, "geometry": { "type": "Point", "coordinates": [ -84.124821758949651, 33.948913810193716 ] } },
{ "type": "Feature", "properties": { "NAME": "Saint Leo University\/Marietta", "ADDRESS": "1395 South Marietta Parkway", "CITY": "Marietta", "ZIP": 30067.0, "STUDENTS10": 100.0, "TAZ05": 761.0, "MTAZ10": 2311.0, "NOTES": null, "sunrise": 2010, "sunset": 9999 }, "geometry": { "type": "Point", "coordinates": [ -84.511837395848389, 33.941047812741623 ] } },
{ "type": "Feature", "properties": { "NAME": "Saint Leo University\/Morrow", "ADDRESS": "1590 Adamson Parkway", "CITY": "Morrow", "ZIP": 30260.0, "STUDENTS10": 0.0, "TAZ05": 1352.0, "MTAZ10": 3542.0, "NOTES": "New Location - Spring 2011_100 students in 2011", "sunrise": 2011, "sunset": 9999 }, "geometry": { "type": "Point", "coordinates": [ -84.33832393798204, 33.577924596490362 ] } },
{ "type": "Feature", "properties": { "NAME": "Sanford-Brown College", "ADDRESS": "1140 Hammond Drive NE", "CITY": "Atlanta", "ZIP": 30328.0, "STUDENTS10": 1763.0, "TAZ05": 198.0, "MTAZ10": 246.0, "NOTES": null, "sunrise": 2010, "sunset": 9999 }, "geometry": { "type": "Point", "coordinates": [ -84.349048296235566, 33.920706362042651 ] } },
{ "type": "Feature", "properties": { "NAME": "Savannah College of Art and Design\/Atlanta", "ADDRESS": "1600 Peachtree Street NE", "CITY": "Atlanta", "ZIP": 30309.0, "STUDENTS10": 1788.0, "TAZ05": 28.0, "MTAZ10": 512.0, "NOTES": null, "sunrise": 2010, "sunset": 9999 }, "geometry": { "type": "Point", "coordinates": [ -84.390888467718455, 33.797006988543203 ] } },
{ "type": "Feature", "properties": { "NAME": "Shorter College\/Atlanta", "ADDRESS": "6151 Powers Ferry Road NW", "CITY": "Atlanta", "ZIP": 30339.0, "STUDENTS10": 2220.0, "TAZ05": 218.0, "MTAZ10": 271.0, "NOTES": null, "sunrise": 2010, "sunset": 9999 }, "geometry": { "type": "Point", "coordinates": [ -84.426538066278709, 33.909685631799114 ] } },
{ "type": "Feature", "properties": { "NAME": "Shorter College\/College Park", "ADDRESS": "1903 Phoenix Boulevard", "CITY": "College Park", "ZIP": 30349.0, "STUDENTS10": 100.0, "TAZ05": 1324.0, "MTAZ10": 3395.0, "NOTES": null, "sunrise": 2010, "sunset": 9999 }, "geometry": { "type": "Point", "coordinates": [ -84.448906192163022, 33.61488267630282 ] } },
{ "type": "Feature", "properties": { "NAME": "Shorter College\/Gwinnett", "ADDRESS": "3805 Crestwood Parkway NW", "CITY": "Duluth", "ZIP": 30096.0, "STUDENTS10": 100.0, "TAZ05": 1105.0, "MTAZ10": 2764.0, "NOTES": null, "sunrise": 2010, "sunset": 9999 }, "geometry": { "type": "Point", "coordinates": [ -84.13155071396686, 33.945067458358032 ] } },
{ "type": "Feature", "properties": { "NAME": "Southern Crescent Technical College\/Griffin", "ADDRESS": "501 Varsity Road", "CITY": "Griffin", "ZIP": 30223.0, "STUDENTS10": 5244.0, "TAZ05": 1811.0, "MTAZ10": 5173.0, "NOTES": null, "sunrise": 2010, "sunset": 9999 }, "geometry": { "type": "Point", "coordinates": [ -84.290916341311245, 33.2552568306089 ] } },
{ "type": "Feature", "properties": { "NAME": "Southern Crescent Technical College\/Henry", "ADDRESS": "401 East Tomlinson Street", "CITY": "McDonough", "ZIP": 30253.0, "STUDENTS10": 25.0, "TAZ05": 1298.0, "MTAZ10": 3316.0, "NOTES": null, "sunrise": 2010, "sunset": 9999 }, "geometry": { "type": "Point", "coordinates": [ -84.133483851117248, 33.44968188424069 ] } },
{ "type": "Feature", "properties": { "NAME": "Southern Polytechnic State University", "ADDRESS": "1100 South Marietta Parkway", "CITY": "Marietta", "ZIP": 30060.0, "STUDENTS10": 5514.0, "TAZ05": 794.0, "MTAZ10": 2167.0, "NOTES": null, "sunrise": 2010, "sunset": 9999 }, "geometry": { "type": "Point", "coordinates": [ -84.519104048682436, 33.93854525452246 ] } },
{ "type": "Feature", "properties": { "NAME": "Spelman College", "ADDRESS": "350 Spelman Lane SW", "CITY": "Atlanta", "ZIP": 30314.0, "STUDENTS10": 2177.0, "TAZ05": 67.0, "MTAZ10": 959.0, "NOTES": null, "sunrise": 2010, "sunset": 9999 }, "geometry": { "type": "Point", "coordinates": [ -84.41125581064054, 33.74558337947763 ] } },
{ "type": "Feature", "properties": { "NAME": "Strayer University\/Chamblee", "ADDRESS": "3355 Northeast Expressway", "CITY": "Atlanta", "ZIP": 30341.0, "STUDENTS10": 883.0, "TAZ05": 520.0, "MTAZ10": 1427.0, "NOTES": null, "sunrise": 2010, "sunset": 9999 }, "geometry": { "type": "Point", "coordinates": [ -84.275572478110135, 33.874240460878077 ] } },
{ "type": "Feature", "properties": { "NAME": "Strayer University\/Cobb", "ADDRESS": "3101 Towercreek Parkway NW", "CITY": "Atlanta", "ZIP": 38134.0, "STUDENTS10": 883.0, "TAZ05": 752.0, "MTAZ10": 2322.0, "NOTES": null, "sunrise": 2010, "sunset": 9999 }, "geometry": { "type": "Point", "coordinates": [ -84.455646052511668, 33.891325225372093 ] } },
{ "type": "Feature", "properties": { "NAME": "Strayer University\/Douglasville", "ADDRESS": "4655 Timber Ridge Drive", "CITY": "Douglasville", "ZIP": 30135.0, "STUDENTS10": 883.0, "TAZ05": 1462.0, "MTAZ10": 3916.0, "NOTES": null, "sunrise": 2010, "sunset": 9999 }, "geometry": { "type": "Point", "coordinates": [ -84.73152864376469, 33.734913699221742 ] } },
{ "type": "Feature", "properties": { "NAME": "Strayer University\/Lithonia", "ADDRESS": "3120 Stonecrest Boulevard", "CITY": "Lithonia", "ZIP": 30038.0, "STUDENTS10": 883.0, "TAZ05": 619.0, "MTAZ10": 1854.0, "NOTES": null, "sunrise": 2010, "sunset": 9999 }, "geometry": { "type": "Point", "coordinates": [ -84.083672854384076, 33.690410696706316 ] } },
{ "type": "Feature", "properties": { "NAME": "Strayer University\/Morrow", "ADDRESS": "3000 Corporate Center", "CITY": "Morrow", "ZIP": 30260.0, "STUDENTS10": 883.0, "TAZ05": 1351.0, "MTAZ10": 3540.0, "NOTES": null, "sunrise": 2010, "sunset": 9999 }, "geometry": { "type": "Point", "coordinates": [ -84.333044905821282, 33.570993416801535 ] } },
{ "type": "Feature", "properties": { "NAME": "Strayer University\/Roswell", "ADDRESS": "100 Mansell Court East", "CITY": "Roswell", "ZIP": 30076.0, "STUDENTS10": 883.0, "TAZ05": 236.0, "MTAZ10": 131.0, "NOTES": null, "sunrise": 2010, "sunset": 9999 }, "geometry": { "type": "Point", "coordinates": [ -84.327231383999674, 34.04107293287548 ] } },
{ "type": "Feature", "properties": { "NAME": "The Art Institute of Atlanta", "ADDRESS": "6600 Peachtree Dunwoody Road NE", "CITY": "Atlanta", "ZIP": 30328.0, "STUDENTS10": 4013.0, "TAZ05": 1671.0, "MTAZ10": 208.0, "NOTES": null, "sunrise": 2010, "sunset": 9999 }, "geometry": { "type": "Point", "coordinates": [ -84.355248234035344, 33.935963108360603 ] } },
{ "type": "Feature", "properties": { "NAME": "The Creative Circus", "ADDRESS": "812 Lambert Drive", "CITY": "Atlanta", "ZIP": 30324.0, "STUDENTS10": 268.0, "TAZ05": 156.0, "MTAZ10": 524.0, "NOTES": null, "sunrise": 2010, "sunset": 9999 }, "geometry": { "type": "Point", "coordinates": [ -84.362042877419924, 33.813208203612128 ] } },
{ "type": "Feature", "properties": { "NAME": "The Medical Management Institute", "ADDRESS": "11660 Alpharetta Highway", "CITY": "Roswell", "ZIP": 30076.0, "STUDENTS10": 147.0, "TAZ05": 301.0, "MTAZ10": 56.0, "NOTES": null, "sunrise": 2010, "sunset": 9999 }, "geometry": { "type": "Point", "coordinates": [ -84.321592998999677, 34.064455095875765 ] } },
{ "type": "Feature", "properties": { "NAME": "The Process Institute of Cosmetology", "ADDRESS": "755 Lawrenceville Suwanee Road", "CITY": "Lawrenceville", "ZIP": 30043.0, "STUDENTS10": 102.0, "TAZ05": 1074.0, "MTAZ10": 2788.0, "NOTES": null, "sunrise": 2010, "sunset": 9999 }, "geometry": { "type": "Point", "coordinates": [ -84.022511020141849, 33.96485427225489 ] } },
{ "type": "Feature", "properties": { "NAME": "Toni & Guy Hairdressing Academy\/Atlanta", "ADDRESS": "1355 Roswell Road", "CITY": "Marietta", "ZIP": 30062.0, "STUDENTS10": 103.0, "TAZ05": 780.0, "MTAZ10": 2285.0, "NOTES": null, "sunrise": 2010, "sunset": 9999 }, "geometry": { "type": "Point", "coordinates": [ -84.512545976623812, 33.95242551749277 ] } },
{ "type": "Feature", "properties": { "NAME": "Troy University\/Atlanta", "ADDRESS": "1117 Perimeter Center West", "CITY": "Atlanta", "ZIP": 30338.0, "STUDENTS10": 700.0, "TAZ05": 197.0, "MTAZ10": 244.0, "NOTES": null, "sunrise": 2010, "sunset": 9999 }, "geometry": { "type": "Point", "coordinates": [ -84.352176558856826, 33.930710764387584 ] } },
{ "type": "Feature", "properties": { "NAME": "Troy University\/Covington", "ADDRESS": "1160 Monticello Street", "CITY": "Covington", "ZIP": 30014.0, "STUDENTS10": 700.0, "TAZ05": 1846.0, "MTAZ10": 5307.0, "NOTES": null, "sunrise": 2010, "sunset": 9999 }, "geometry": { "type": "Point", "coordinates": [ -83.860637308947304, 33.595190094755822 ] } },
{ "type": "Feature", "properties": { "NAME": "UEI\/Morrow", "ADDRESS": "1564 Southlake Parkway", "CITY": "Morrow", "ZIP": 30260.0, "STUDENTS10": 529.0, "TAZ05": 1351.0, "MTAZ10": 3541.0, "NOTES": null, "sunrise": 2010, "sunset": 9999 }, "geometry": { "type": "Point", "coordinates": [ -84.335888307938887, 33.574128014826414 ] } },
{ "type": "Feature", "properties": { "NAME": "University of Georgia\/Atlanta", "ADDRESS": "3475 Lenox Road NE", "CITY": "Atlanta", "ZIP": 30326.0, "STUDENTS10": 311.0, "TAZ05": 1653.0, "MTAZ10": 347.0, "NOTES": null, "sunrise": 2010, "sunset": 9999 }, "geometry": { "type": "Point", "coordinates": [ -84.360605553962571, 33.849428514412821 ] } },
{ "type": "Feature", "properties": { "NAME": "University of Georgia\/Griffin", "ADDRESS": "1109 Experiment Street", "CITY": "Griffin", "ZIP": 30223.0, "STUDENTS10": 112.0, "TAZ05": 1808.0, "MTAZ10": 5160.0, "NOTES": null, "sunrise": 2010, "sunset": 9999 }, "geometry": { "type": "Point", "coordinates": [ -84.284106351661805, 33.264297784903789 ] } },
{ "type": "Feature", "properties": { "NAME": "University of Georgia\/Gwinnett", "ADDRESS": "2530 Sever Road NW", "CITY": "Lawrenceville", "ZIP": 30043.0, "STUDENTS10": 446.0, "TAZ05": 1068.0, "MTAZ10": 2781.0, "NOTES": null, "sunrise": 2010, "sunset": 9999 }, "geometry": { "type": "Point", "coordinates": [ -84.072883421252811, 33.998209991915303 ] } },
{ "type": "Feature", "properties": { "NAME": "University of Phoenix\/Alpharetta", "ADDRESS": "1725 Windward Concourse Parkway", "CITY": "Alpharetta", "ZIP": 30005.0, "STUDENTS10": 180.0, "TAZ05": 1615.0, "MTAZ10": 4607.0, "NOTES": null, "sunrise": 2010, "sunset": 9999 }, "geometry": { "type": "Point", "coordinates": [ -84.240310420650729, 34.104112096088222 ] } },
{ "type": "Feature", "properties": { "NAME": "University of Phoenix\/DeKalb", "ADDRESS": "2600 Century Parkway NE", "CITY": "Atlanta", "ZIP": 30345.0, "STUDENTS10": 180.0, "TAZ05": 509.0, "MTAZ10": 1380.0, "NOTES": null, "sunrise": 2010, "sunset": 9999 }, "geometry": { "type": "Point", "coordinates": [ -84.305753784325674, 33.847801736268977 ] } },
{ "type": "Feature", "properties": { "NAME": "University of Phoenix\/Gwinnett", "ADDRESS": "2470 Satellite Boulevard", "CITY": "Duluth", "ZIP": 31904.0, "STUDENTS10": 190.0, "TAZ05": 953.0, "MTAZ10": 2811.0, "NOTES": null, "sunrise": 2010, "sunset": 9999 }, "geometry": { "type": "Point", "coordinates": [ -84.093497487650609, 33.971814525459209 ] } },
{ "type": "Feature", "properties": { "NAME": "University of Phoenix\/Marietta", "ADDRESS": "1850 Parkway Place", "CITY": "Marietta", "ZIP": 30067.0, "STUDENTS10": 200.0, "TAZ05": 760.0, "MTAZ10": 2310.0, "NOTES": null, "sunrise": 2010, "sunset": 9999 }, "geometry": { "type": "Point", "coordinates": [ -84.503128595304517, 33.938208527045695 ] } },
{ "type": "Feature", "properties": { "NAME": "University of Phoenix\/McDonough", "ADDRESS": "2030 Avalon Parkway", "CITY": "McDonough", "ZIP": 30253.0, "STUDENTS10": 160.0, "TAZ05": 1310.0, "MTAZ10": 3293.0, "NOTES": null, "sunrise": 2010, "sunset": 9999 }, "geometry": { "type": "Point", "coordinates": [ -84.17126256701124, 33.415344258433116 ] } },
{ "type": "Feature", "properties": { "NAME": "University of Phoenix\/Sandy Springs", "ADDRESS": "8200 Roberts Drive", "CITY": "Dunwoody", "ZIP": 30350.0, "STUDENTS10": 875.0, "TAZ05": 207.0, "MTAZ10": 202.0, "NOTES": null, "sunrise": 2010, "sunset": 9999 }, "geometry": { "type": "Point", "coordinates": [ -84.341473819189261, 33.979985603882227 ] } },
{ "type": "Feature", "properties": { "NAME": "University of Phoenix\/Snellville", "ADDRESS": "1350 Scenic Highway North", "CITY": "Snellville", "ZIP": 30078.0, "STUDENTS10": 170.0, "TAZ05": 1199.0, "MTAZ10": 2688.0, "NOTES": null, "sunrise": 2010, "sunset": 9999 }, "geometry": { "type": "Point", "coordinates": [ -84.004151689100837, 33.896668172965605 ] } },
{ "type": "Feature", "properties": { "NAME": "University of West Georgia\/Carrollton", "ADDRESS": "1601 Maple Street", "CITY": "Carrollton", "ZIP": 30118.0, "STUDENTS10": 10683.0, "TAZ05": 1759.0, "MTAZ10": 5093.0, "NOTES": null, "sunrise": 2010, "sunset": 9999 }, "geometry": { "type": "Point", "coordinates": [ -85.099987693230986, 33.573459877490869 ] } },
{ "type": "Feature", "properties": { "NAME": "University of West Georgia\/Newnan", "ADDRESS": "7 Solar Circle", "CITY": "Newnan", "ZIP": 30265.0, "STUDENTS10": 600.0, "TAZ05": 1571.0, "MTAZ10": 4271.0, "NOTES": null, "sunrise": 2010, "sunset": 9999 }, "geometry": { "type": "Point", "coordinates": [ -84.747022170598882, 33.40329596545881 ] } },
{ "type": "Feature", "properties": { "NAME": "Vogue Beauty School\/Cartersville", "ADDRESS": "238 Nelson Street", "CITY": "Cartersville", "ZIP": 30120.0, "STUDENTS10": 50.0, "TAZ05": 1714.0, "MTAZ10": 4896.0, "NOTES": null, "sunrise": 2010, "sunset": 9999 }, "geometry": { "type": "Point", "coordinates": [ -84.789937438048156, 34.173202825163465 ] } },
{ "type": "Feature", "properties": { "NAME": "Vogue Beauty School\/Hiram", "ADDRESS": "3655 MacLand Road", "CITY": "Hiram", "ZIP": 30141.0, "STUDENTS10": 50.0, "TAZ05": 1628.0, "MTAZ10": 4761.0, "NOTES": null, "sunrise": 2010, "sunset": 9999 }, "geometry": { "type": "Point", "coordinates": [ -84.746631774196644, 33.909041850216035 ] } },
{ "type": "Feature", "properties": { "NAME": "West Georgia Technical College\/Carroll", "ADDRESS": "997 Newnan Road", "CITY": "Carrollton", "ZIP": 30116.0, "STUDENTS10": 2200.0, "TAZ05": 1769.0, "MTAZ10": 5114.0, "NOTES": null, "sunrise": 2010, "sunset": 9999 }, "geometry": { "type": "Point", "coordinates": [ -85.048084729537138, 33.567434665507768 ] } },
{ "type": "Feature", "properties": { "NAME": "West Georgia Technical College\/Coweta", "ADDRESS": "160 Martin Luther King Jr Drive", "CITY": "Newnan", "ZIP": 30263.0, "STUDENTS10": 1000.0, "TAZ05": 1585.0, "MTAZ10": 4268.0, "NOTES": "Move to new location Spring 2013", "sunrise": 2010, "sunset": 2012 }, "geometry": { "type": "Point", "coordinates": [ -84.782019752972502, 33.364805624066769 ] } },
{ "type": "Feature", "properties": { "NAME": "West Georgia Technical College\/Coweta", "ADDRESS": "Turkey Creek Drive", "CITY": "Newnan", "ZIP": 30263.0, "STUDENTS10": 0.0, "TAZ05": 2005.0, "MTAZ10": 4252.0, "NOTES": "New Location - Spring 2013, 1027 students", "sunrise": 2013, "sunset": 9999 }, "geometry": { "type": "Point", "coordinates": [ -84.758814785408561, 33.357458014968017 ] } },
{ "type": "Feature", "properties": { "NAME": "West Georgia Technical College\/Douglas", "ADDRESS": "4600 Timber Ridge Drive", "CITY": "Douglasville", "ZIP": 30135.0, "STUDENTS10": 1300.0, "TAZ05": 1462.0, "MTAZ10": 3920.0, "NOTES": null, "sunrise": 2010, "sunset": 9999 }, "geometry": { "type": "Point", "coordinates": [ -84.726735002829557, 33.736986010671778 ] } },
{ "type": "Feature", "properties": { "NAME": "Westwood College\/Midtown", "ADDRESS": "1100 Spring Street NW", "CITY": "Atlanta", "ZIP": 30309.0, "STUDENTS10": 805.0, "TAZ05": 35.0, "MTAZ10": 495.0, "NOTES": null, "sunrise": 2010, "sunset": 9999 }, "geometry": { "type": "Point", "coordinates": [ -84.389916982999978, 33.784723208871945 ] } },
{ "type": "Feature", "properties": { "NAME": "Westwood College\/Northlake", "ADDRESS": "2309 Parklake Drive NE", "CITY": "Atlanta", "ZIP": 30345.0, "STUDENTS10": 586.0, "TAZ05": 534.0, "MTAZ10": 1462.0, "NOTES": null, "sunrise": 2010, "sunset": 9999 }, "geometry": { "type": "Point", "coordinates": [ -84.24844873928329, 33.853602006292157 ] } }
]
}
