{
"type": "FeatureCollection",
"crs": { "type": "name", "properties": { "name": "urn:ogc:def:crs:OGC:1.3:CRS84" } },
                                                                                
"features": [
{ "type": "Feature", "properties": { "Ctr_Name": "South DeKalb Senior Center", "Address": "1931 Candler Road", "Address2": null, "City": "Decatur", "State": "GA", "ZipCode": "30032", "County": "DeKalb", "MailAddres": null, "Contact_Nm": "Gertha Lowe Ward", "Title": "Site Manager", "Phone1": "(770) 452-5884", "Phone2": null, "Fax": null, "Email": null, "Website": null, "Label": "South DeKalb" }, "geometry": { "type": "Point", "coordinates": [ -84.285485583359261, 33.734557944129691 ] } },
{ "type": "Feature", "properties": { "Ctr_Name": "DeKalb\/Atlanta Senior Center", "Address": "25 Warren Street", "Address2": null, "City": "Atlanta", "State": "GA", "ZipCode": "30317", "County": "DeKalb", "MailAddres": "25 Warren Street, SE, Atlanta, GA  30317", "Contact_Nm": "TaJuana Johnson", "Title": "Manager", "Phone1": "(770) 452-5881", "Phone2": null, "Fax": null, "Email": null, "Website": null, "Label": "DeKalb\/Atlanta" }, "geometry": { "type": "Point", "coordinates": [ -84.325823696859615, 33.753794454938252 ] } },
{ "type": "Feature", "properties": { "Ctr_Name": "New Horizons Neighborhood Senior Center", "Address": "745 Orr Street, NW", "Address2": null, "City": "Atlanta", "State": "GA", "ZipCode": "30314", "County": "Fulton", "MailAddres": null, "Contact_Nm": "Hazel Gonzalez", "Title": "Director", "Phone1": "(404) 730-7100", "Phone2": null, "Fax": "(404) 730-4487", "Email": null, "Website": null, "Label": "New Horizons" }, "geometry": { "type": "Point", "coordinates": [ -84.411843815750885, 33.762540001884709 ] } },
{ "type": "Feature", "properties": { "Ctr_Name": "Gwinnett Senior Center", "Address": "225 Bethesda Church Road", "Address2": null, "City": "Lawrenceville", "State": "GA", "ZipCode": "30044", "County": "Gwinnett", "MailAddres": null, "Contact_Nm": "Pam Hoffman", "Title": "Program Supervisor", "Phone1": "(770) 564-4680", "Phone2": null, "Fax": "(770) 564-4680", "Email": "pam.hoffman@gwinnettparks.com", "Website": "www.gwinnettparks.com", "Label": "Gwinnett" }, "geometry": { "type": "Point", "coordinates": [ -84.084670413486208, 33.914639924164213 ] } },
{ "type": "Feature", "properties": { "Ctr_Name": "Buford Senior Center", "Address": "2755 Sawnee Avenue", "Address2": null, "City": "Buford", "State": "GA", "ZipCode": "30518", "County": "Gwinnett", "MailAddres": null, "Contact_Nm": "Mary Harrison", "Title": "Manager", "Phone1": "(770) 614-2527", "Phone2": null, "Fax": "(770) 614-2549", "Email": "mary.harrison@gwinnettcounty.com", "Website": "no website for senior center", "Label": "Buford" }, "geometry": { "type": "Point", "coordinates": [ -83.985709541020498, 34.129064647505359 ] } },
{ "type": "Feature", "properties": { "Ctr_Name": "Palmetto Senior Center", "Address": "510 Turner Avenue", "Address2": null, "City": "Palmetto", "State": "GA", "ZipCode": "30268", "County": "Fulton", "MailAddres": null, "Contact_Nm": "Patti Obryen", "Title": "Director", "Phone1": "(404) 463-4990", "Phone2": null, "Fax": "(770) 463-6285", "Email": null, "Website": null, "Label": "Palmetto" }, "geometry": { "type": "Point", "coordinates": [ -84.667815994813907, 33.52494899550603 ] } },
{ "type": "Feature", "properties": { "Ctr_Name": "North DeKalb Senior Center", "Address": "2248 Johnson Ferry Road", "Address2": null, "City": "Decatur", "State": "GA", "ZipCode": "30319", "County": "DeKalb", "MailAddres": null, "Contact_Nm": "Belinda Goodman", "Title": "Manager", "Phone1": "(770) 451-3568", "Phone2": null, "Fax": null, "Email": null, "Website": null, "Label": "N. DeKalb" }, "geometry": { "type": "Point", "coordinates": [ -84.322035935239327, 33.890798450411651 ] } },
{ "type": "Feature", "properties": { "Ctr_Name": "Roswell Senior Center", "Address": "1250 Warsaw Road", "Address2": null, "City": "Roswell", "State": "GA", "ZipCode": "30076", "County": "Fulton", "MailAddres": "490 Sun Valley Drive\r\nSuite 202, Roswell, GA  30076", "Contact_Nm": "Mindy Posey", "Title": "Director", "Phone1": "(770) 640-1583", "Phone2": null, "Fax": "(770) 993-0837", "Email": "mposey@ssnf.net", "Website": "www.ssnf.net", "Label": "Roswell" }, "geometry": { "type": "Point", "coordinates": [ -84.333969755852436, 34.030013434010513 ] } },
{ "type": "Feature", "properties": { "Ctr_Name": "Austell Senior Center", "Address": "5580 Austell Powder Springs Road", "Address2": null, "City": "Austell", "State": "GA", "ZipCode": "30106", "County": "Cobb", "MailAddres": null, "Contact_Nm": "Mary Bropleh", "Title": "Site Manger", "Phone1": "(770) 528-5355", "Phone2": "(770) 819-3200", "Fax": null, "Email": "Mary.bropleh@cobbcounty.org", "Website": "http:\/\/seniors.cobbcountyga.gov\/index.htm", "Label": "Austell" }, "geometry": { "type": "Point", "coordinates": [ -84.642598646472933, 33.820654454582652 ] } },
{ "type": "Feature", "properties": { "Ctr_Name": "Douglas Senior Center", "Address": "6287 Fairburn Road", "Address2": null, "City": "Douglasville", "State": "GA", "ZipCode": "30134", "County": "Douglas", "MailAddres": null, "Contact_Nm": "Judy Webb", "Title": "Director", "Phone1": "(770) 489-3106", "Phone2": null, "Fax": "(770) 489-3110", "Email": "jwebb@douglasseniorservices.org", "Website": "www.co.douglas.ga.us", "Label": "Douglas" }, "geometry": { "type": "Point", "coordinates": [ -84.736652409085835, 33.75050990915453 ] } },
{ "type": "Feature", "properties": { "Ctr_Name": "Lithonia Senior Center", "Address": "2484 Bruce Street", "Address2": null, "City": "Lithonia", "State": "GA", "ZipCode": "30058", "County": "DeKalb", "MailAddres": null, "Contact_Nm": "Pat Smith", "Title": "Manager", "Phone1": "(770) 482-0402", "Phone2": null, "Fax": "(770) 482-0396", "Email": null, "Website": null, "Label": "Lithonia" }, "geometry": { "type": "Point", "coordinates": [ -84.099389338050557, 33.714382404935591 ] } },
{ "type": "Feature", "properties": { "Ctr_Name": "Hidden Valley Senior Center", "Address": "600 Spraggins Memorial Parkway", "Address2": null, "City": "Stockbridge", "State": "GA", "ZipCode": "30281", "County": "Henry", "MailAddres": "600 Spraggins Memorial Pkwy, Stockbridge, GA  30281", "Contact_Nm": "Jimmie Batchelor", "Title": "Program Coordinator", "Phone1": "(770) 288-7002", "Phone2": null, "Fax": "(770) 288-7018", "Email": null, "Website": "http:\/\/www.co.henry.ga.us\/SeniorServices\/Fairview\/SeniorHiddenValleyCenter.asp", "Label": "Hidden Valley" }, "geometry": { "type": "Point", "coordinates": [ -84.215864127895216, 33.609064128293149 ] } },
{ "type": "Feature", "properties": { "Ctr_Name": "Heritage Senior Center", "Address": "1050 Florence McGarity Blvd", "Address2": null, "City": "McDonough", "State": "GA", "ZipCode": "30252", "County": "Henry", "MailAddres": "1050 Florence McGarity Blvd, McDonough, GA  30252", "Contact_Nm": "Jennifer Scrivens", "Title": "Program Coordinator", "Phone1": "(770) 288-7001", "Phone2": null, "Fax": "(770) 288-7017", "Email": null, "Website": "http:\/\/www.co.henry.ga.us\/SeniorServices\/McDonough\/SeniorHeritageCenter.htm", "Label": "Heritage" }, "geometry": { "type": "Point", "coordinates": [ -84.125309803878395, 33.443111176929627 ] } },
{ "type": "Feature", "properties": { "Ctr_Name": "Scottdale Senior Center", "Address": "3262 Chapel Road", "Address2": null, "City": "Scottdale", "State": "GA", "ZipCode": "30079", "County": "DeKalb", "MailAddres": null, "Contact_Nm": "Pazanta Byars", "Title": "Site Manager", "Phone1": "(404) 501-0704", "Phone2": null, "Fax": null, "Email": null, "Website": "www.srconn.org", "Label": "Scottdale" }, "geometry": { "type": "Point", "coordinates": [ -84.25636120092318, 33.786570000174727 ] } },
{ "type": "Feature", "properties": { "Ctr_Name": "Helene S. Mills  Senior Mulltipurpose Facility", "Address": "515 John Wesley Dobbs Avenue", "Address2": null, "City": "Atlanta", "State": "GA", "ZipCode": "30312", "County": "Fulton", "MailAddres": null, "Contact_Nm": "Carlos Thomas", "Title": "Facility Mananger", "Phone1": "(404) 523-3353", "Phone2": null, "Fax": "(404) 893-0765", "Email": "available through the website", "Website": "www.fultonhumanservices.org", "Label": "Mills" }, "geometry": { "type": "Point", "coordinates": [ -84.370514893532004, 33.759352118740445 ] } },
{ "type": "Feature", "properties": { "Ctr_Name": "Lou Walker Multipurpose Facility for Active Older Adults", "Address": "2538 Panola Road", "Address2": null, "City": "Lithonia", "State": "GA", "ZipCode": "30058", "County": "DeKalb", "MailAddres": null, "Contact_Nm": "Melinda Davis", "Title": "Director", "Phone1": "(770) 322-2900", "Phone2": null, "Fax": "(770) 322-2901", "Email": null, "Website": "http:\/\/www.co.dekalb.ga.us\/humanserv\/lou.htm", "Label": "Walker" }, "geometry": { "type": "Point", "coordinates": [ -84.165590746697191, 33.714191028125057 ] } },
{ "type": "Feature", "properties": { "Ctr_Name": "William G. Long Senior Citizens Center - Woodstock", "Address": "231 Arnold Mill Drive", "Address2": "Suite 400", "City": "Woodstock", "State": "GA", "ZipCode": "30188", "County": "Cherokee", "MailAddres": null, "Contact_Nm": null, "Title": null, "Phone1": "(678) 445-6518", "Phone2": null, "Fax": "(678) 445-4351", "Email": "wglsc@bellsouth.net.", "Website": null, "Label": "Long" }, "geometry": { "type": "Point", "coordinates": [ -84.509479501202335, 34.101252399958113 ] } },
{ "type": "Feature", "properties": { "Ctr_Name": "Hapeville Neighborhood Senior Center", "Address": "527 King Arnold Street", "Address2": null, "City": "Hapeville", "State": "GA", "ZipCode": "30354", "County": "Fulton", "MailAddres": null, "Contact_Nm": "Cathy Anderson", "Title": "Center Manager", "Phone1": "(404) 762-3660", "Phone2": null, "Fax": "(404) 762-3656", "Email": null, "Website": null, "Label": "Hapeville" }, "geometry": { "type": "Point", "coordinates": [ -84.406327506645226, 33.658834883862497 ] } },
{ "type": "Feature", "properties": { "Ctr_Name": "Lawrenceville Senior Center", "Address": "225 Benson Street", "Address2": "Rhodes Jordan Park", "City": "Lawrenceville", "State": "GA", "ZipCode": "30045", "County": "Gwinnett", "MailAddres": null, "Contact_Nm": "Ann Vines", "Title": "Center Manger", "Phone1": "(770) 822-5180", "Phone2": null, "Fax": "(770) 822-5423", "Email": "ann.vines@gwinnettcounty.com", "Website": "www.gwinnettcounty.com", "Label": "Lawrenceville" }, "geometry": { "type": "Point", "coordinates": [ -83.981786809675725, 33.963166809669396 ] } },
{ "type": "Feature", "properties": { "Ctr_Name": "Norcross Senior Center", "Address": "5030 Georgia Belle Court", "Address2": "Norcross Human Service Center", "City": "Norcross", "State": "GA", "ZipCode": "30093", "County": "Gwinnett", "MailAddres": null, "Contact_Nm": "TammyBlakely", "Title": "Center Director", "Phone1": "(770) 638-5680", "Phone2": null, "Fax": "(770) 638-5679", "Email": "tammy.blakely@gwinnettcounty.com", "Website": "www.gwinnettseniorservices.com", "Label": "Norcross" }, "geometry": { "type": "Point", "coordinates": [ -84.165946729742359, 33.9201000034925 ] } },
{ "type": "Feature", "properties": { "Ctr_Name": "Center for Active Seniors - Eldercare Systems, Inc.", "Address": "2245 Dillard Street", "Address2": null, "City": "Tucker", "State": "GA", "ZipCode": "30084", "County": "DeKalb", "MailAddres": "2245 Dillard Street, Tucker, GA  30084", "Contact_Nm": "Ellie Schmittinger", "Title": "President", "Phone1": "(770) 496-5735", "Phone2": null, "Fax": "(770) 496-1655", "Email": "ellie@eldsys.com", "Website": "www.eldsys.com", "Label": "Center for Active Seniors" }, "geometry": { "type": "Point", "coordinates": [ -84.208185218345633, 33.849917811604904 ] } },
{ "type": "Feature", "properties": { "Ctr_Name": "Cherokee Senior Center", "Address": "1001 Univeter Road", "Address2": null, "City": "Canton", "State": "GA", "ZipCode": "30114", "County": "Cherokee", "MailAddres": null, "Contact_Nm": "Joy Grimm", "Title": "Site Manager", "Phone1": "(770) 345-6730", "Phone2": "(770) 345-5312", "Fax": "(770) 345-6737", "Email": null, "Website": null, "Label": "Cherokee" }, "geometry": { "type": "Point", "coordinates": [ -84.494905148798068, 34.194534729437237 ] } },
{ "type": "Feature", "properties": { "Ctr_Name": "Ball Ground Senior Center", "Address": "250 Civic Drive", "Address2": null, "City": "Ball Ground", "State": "GA", "ZipCode": "30107", "County": "Cherokee", "MailAddres": null, "Contact_Nm": null, "Title": null, "Phone1": "(770) 479-7438", "Phone2": null, "Fax": "(770) 345-6737", "Email": null, "Website": "http:\/\/www.cherokeega.com\/ccweb\/departments\/senior\/", "Label": "Ball Ground" }, "geometry": { "type": "Point", "coordinates": [ -84.373214999215918, 34.337065298966174 ] } },
{ "type": "Feature", "properties": { "Ctr_Name": "Senior Connections - Senior Activty Center", "Address": "5238 Peachtree Road", "Address2": null, "City": "Chamblee", "State": "GA", "ZipCode": "30341", "County": "DeKalb", "MailAddres": null, "Contact_Nm": "Charlotte", "Title": "Manager", "Phone1": "(770) 455-7602", "Phone2": null, "Fax": "(770) 455-8157", "Email": null, "Website": "www.srconn.org", "Label": "Senior Connections" }, "geometry": { "type": "Point", "coordinates": [ -84.306051095519948, 33.88844445681039 ] } },
{ "type": "Feature", "properties": { "Ctr_Name": "Frank Bailey Senior Center - Riverdale Senior Center", "Address": "6213 Riverdale Road", "Address2": null, "City": "Riverdale", "State": "GA", "ZipCode": "30274", "County": "Clayton", "MailAddres": null, "Contact_Nm": "Sue Orihuela", "Title": "Acting Director", "Phone1": "(678) 479-5505", "Phone2": null, "Fax": "(678) 479-5522", "Email": null, "Website": "http:\/\/www.co.clayton.ga.us\/parks_and_recreation\/riverdale_senior.htm", "Label": "Frank Bailey" }, "geometry": { "type": "Point", "coordinates": [ -84.421311513781163, 33.586067101594864 ] } },
{ "type": "Feature", "properties": { "Ctr_Name": "Dorothy C. Benson Senior Multipurpose Complex", "Address": "6500 Vernon Woods Drive", "Address2": "'Sandy Springs Neighborhood Senior Center, Bldg A", "City": "Sandy Springs", "State": "GA", "ZipCode": "30328", "County": "Fulton", "MailAddres": "6500 Vernon Woods Drive, Bldg. A, Sandy Springs, GA  30328", "Contact_Nm": "Carrie Goodheart", "Title": "Center Manager", "Phone1": "(404) 705-4913", "Phone2": null, "Fax": "(404) 843-7363", "Email": null, "Website": "http:\/\/www.co.fulton.ga.us\/services\/services_detail_T27_R59.html", "Label": "Benson" }, "geometry": { "type": "Point", "coordinates": [ -84.375995341058044, 33.930920476803706 ] } },
{ "type": "Feature", "properties": { "Ctr_Name": "Wilma Shelnutt Senior Center", "Address": "849 Battle Creek Road", "Address2": null, "City": "Jonesboro", "State": "GA", "ZipCode": "30236", "County": "Clayton", "MailAddres": null, "Contact_Nm": "Kiran Shalindra", "Title": "Manager", "Phone1": "(770) 473-5788", "Phone2": null, "Fax": "(770) 603-4181", "Email": null, "Website": "http:\/\/www.co.clayton.ga.us\/parks_and_recreation\/shelnutt_senior.htm", "Label": "Shelnutt" }, "geometry": { "type": "Point", "coordinates": [ -84.363506900303065, 33.554746499811245 ] } },
{ "type": "Feature", "properties": { "Ctr_Name": "H. J. C. Bowden Senior Multipurpose Facility", "Address": "2885 Church Street", "Address2": null, "City": "East Point", "State": "GA", "ZipCode": "30344", "County": "Fulton", "MailAddres": "2885 Church Street, East Point, GA  30344", "Contact_Nm": "Jean Bean", "Title": "Facility Manager", "Phone1": "(404) 762-4821", "Phone2": null, "Fax": "(404) 332-0430", "Email": "jean.bean@co.fulton.ga.us", "Website": "www.fultonhumanservices.org", "Label": "Bowden" }, "geometry": { "type": "Point", "coordinates": [ -84.444679102803349, 33.676429362208701 ] } },
{ "type": "Feature", "properties": { "Ctr_Name": "Northside Shepherds Center", "Address": "1705 Commerce Drive, NW", "Address2": "Senior Citizen Services", "City": "Atlanta", "State": "GA", "ZipCode": "30318", "County": "Fulton", "MailAddres": null, "Contact_Nm": "Christie Kennedy", "Title": "Site Director", "Phone1": "(404) 352-9303", "Phone2": null, "Fax": "(404) 352-0595", "Email": "ckennedy@scsatl.org", "Website": null, "Label": "Northside Shepherds Center" }, "geometry": { "type": "Point", "coordinates": [ -84.411185415726067, 33.800527336869933 ] } },
{ "type": "Feature", "properties": { "Ctr_Name": "Marcus Jewish Community Center", "Address": "5342 Tilly Mill Road", "Address2": "Zaban Park", "City": "Dunwoody", "State": "GA", "ZipCode": "30338", "County": "DeKalb", "MailAddres": null, "Contact_Nm": "Beth Goldner", "Title": "Site Manager", "Phone1": "(770) 395-2605", "Phone2": null, "Fax": "(770) 396-2427", "Email": null, "Website": "http:\/\/www.atlantajcc.org\/", "Label": "Marcus" }, "geometry": { "type": "Point", "coordinates": [ -84.303679993192787, 33.94715999034937 ] } },
{ "type": "Feature", "properties": { "Ctr_Name": "Harriett G. Darnell Senior Multipurpose Facility", "Address": "677 Fairburn Road N.W.", "Address2": null, "City": "Atlanta", "State": "GA", "ZipCode": "30331", "County": "Fulton", "MailAddres": null, "Contact_Nm": "Elaine Hunter", "Title": "Program Coordinator", "Phone1": "(404) 699-8580", "Phone2": null, "Fax": "(404) 505-3866", "Email": null, "Website": null, "Label": "Darnell" }, "geometry": { "type": "Point", "coordinates": [ -84.500256014174155, 33.774003480690716 ] } },
{ "type": "Feature", "properties": { "Ctr_Name": "C Freeman Poole Center", "Address": "4025 South Hurt Road", "Address2": null, "City": "Smyrna", "State": "GA", "ZipCode": "30082", "County": "Cobb", "MailAddres": null, "Contact_Nm": "Gretchen Mattei", "Title": "Program Coordinator", "Phone1": "(770) 801-3400", "Phone2": null, "Fax": "(770) 801-3409", "Email": "Gretchen.mattei@cobbcounty.org", "Website": "www.cobbseniors.org", "Label": "Poole" }, "geometry": { "type": "Point", "coordinates": [ -84.567316125401078, 33.856694502390219 ] } },
{ "type": "Feature", "properties": { "Ctr_Name": "Friendship Senior Center", "Address": "390 Lee Street", "Address2": null, "City": "Fayetteville", "State": "GA", "ZipCode": "30214", "County": "Fayette", "MailAddres": "390 Lee Street, Fayetteville, GA  30214", "Contact_Nm": "Nancy Meaders", "Title": "Information and Refferal Specialist", "Phone1": "(770) 461-0813", "Phone2": null, "Fax": "(770) 461-2448", "Email": "info@fayss.org", "Website": "www.fayss.org", "Label": "Friendship" }, "geometry": { "type": "Point", "coordinates": [ -84.454223060790355, 33.441887756369361 ] } },
{ "type": "Feature", "properties": { "Ctr_Name": "Marietta Senior Center", "Address": "32 North Fairground Street", "Address2": null, "City": "Marietta", "State": "GA", "ZipCode": "30060", "County": "Cobb", "MailAddres": null, "Contact_Nm": "Carol Saunders", "Title": "Director", "Phone1": "(770) 528-2515", "Phone2": null, "Fax": "(770) 528-5378", "Email": "Carol.saunders@cobbcounty.org", "Website": "www.cobbseniors.org", "Label": "Marietta" }, "geometry": { "type": "Point", "coordinates": [ -84.535764278971286, 33.95160871823041 ] } },
{ "type": "Feature", "properties": { "Ctr_Name": "Camp Truitt Senior Center", "Address": "4320 Herschel Road", "Address2": null, "City": "College Park", "State": "GA", "ZipCode": "30337", "County": "Fulton", "MailAddres": "4320 Herschel Road, College Park, GA  30337", "Contact_Nm": "Anita Carter", "Title": "Director", "Phone1": "(404) 762-4802", "Phone2": null, "Fax": "(404) 762-4804", "Email": "no email", "Website": "www.southfultonseniorservices.org", "Label": "Camp Truitt" }, "geometry": { "type": "Point", "coordinates": [ -84.47243665561902, 33.637141680892519 ] } },
{ "type": "Feature", "properties": { "Ctr_Name": "Olivia Haydel Senior Center - Rockdale County Senior Services", "Address": "1240 Dogwood Drive S.W.", "Address2": null, "City": "Conyers", "State": "GA", "ZipCode": "30012", "County": "Rockdale", "MailAddres": "1240 Dogwood Drive S.W., Conyers, GA  30012", "Contact_Nm": "Susan Morgan", "Title": "Center Manager", "Phone1": "(770) 922-4633", "Phone2": "(770) 785-5929", "Fax": "(770) 785-2492", "Email": "susan.morgan@rockdalecounty.org", "Website": "http:\/\/www.rockdalecounty.org\/rock.cfm?pid=44", "Label": "Olivia Haydel" }, "geometry": { "type": "Point", "coordinates": [ -84.02653953963852, 33.667729344112864 ] } },
{ "type": "Feature", "properties": { "Ctr_Name": "Crabapple Senior Center", "Address": "12624 Broadwell Road", "Address2": null, "City": "Alpharetta", "State": "GA", "ZipCode": "30004", "County": "Fulton", "MailAddres": "12624 Broadwell Road, Alpharetta, GA  30004", "Contact_Nm": "Pat Miller", "Title": "Director", "Phone1": "(770) 751-9397", "Phone2": null, "Fax": "(770) 751-9397", "Email": null, "Website": null, "Label": "Crabapple" }, "geometry": { "type": "Point", "coordinates": [ -84.339517787919121, 34.088437856695599 ] } },
{ "type": "Feature", "properties": { "Ctr_Name": "Bethlehem Senior Center", "Address": "87 Thayer Street, SE", "Address2": null, "City": "Atlanta", "State": "GA", "ZipCode": "30315", "County": "Fulton", "MailAddres": "87 Thayer Street, SE, Atlanta, GA  30315", "Contact_Nm": "Margaret Hoard", "Title": "Manager", "Phone1": "(404) 577-6017", "Phone2": null, "Fax": "(404) 818-8001", "Email": "bethlehem1@yahoo.com", "Website": "www.wesleycenters.org", "Label": "Bethlehem" }, "geometry": { "type": "Point", "coordinates": [ -84.385296060843444, 33.715443413226879 ] } },
{ "type": "Feature", "properties": { "Ctr_Name": "Dogwood Senior Center", "Address": "1953 Donald L Hollowell NW", "Address2": null, "City": "Atlanta", "State": "GA", "ZipCode": "30318", "County": "Fulton", "MailAddres": null, "Contact_Nm": "Marguerite Banks", "Title": "Director", "Phone1": "(404) 792-4964", "Phone2": null, "Fax": "(404) 792-4965", "Email": "mbanks@scsatl.org", "Website": "www.scsatl.org", "Label": "Dogwood" }, "geometry": { "type": "Point", "coordinates": [ -84.448695067726575, 33.775802689268922 ] } },
{ "type": "Feature", "properties": { "Ctr_Name": "Windy Hill Senior Center", "Address": "1885 Roswell Street", "Address2": null, "City": "Smyrna", "State": "GA", "ZipCode": "30080", "County": "Cobb", "MailAddres": null, "Contact_Nm": "Joan Kopp", "Title": "Director", "Phone1": "(770) 801-5320", "Phone2": null, "Fax": "(770) 801-5323", "Email": "Joan.kopp@cobbcounty.org", "Website": "www.cobbserniors.org", "Label": "Windy Hill" }, "geometry": { "type": "Point", "coordinates": [ -84.499178877835277, 33.895071007740739 ] } },
{ "type": "Feature", "properties": { "Ctr_Name": "East Cobb Senior Center", "Address": "3332 Sandy Plains Road", "Address2": null, "City": "Marietta", "State": "GA", "ZipCode": "30066", "County": "Cobb", "MailAddres": null, "Contact_Nm": "Sandee Panichi", "Title": "Program Coordinator", "Phone1": "(770) 509-4900", "Phone2": null, "Fax": null, "Email": "Sandee.panichi@cobbcounty.org", "Website": "www.cobbseniors.org", "Label": "East Cobb" }, "geometry": { "type": "Point", "coordinates": [ -84.466727288342838, 34.031562878597249 ] } },
{ "type": "Feature", "properties": { "Ctr_Name": "St. Paul Golden Age Center", "Address": "501 Grant Street, S.E.", "Address2": null, "City": "Atlanta", "State": "GA", "ZipCode": "30313", "County": "Fulton", "MailAddres": null, "Contact_Nm": "Becky Wellman", "Title": "Director", "Phone1": "(404) 688-7501", "Phone2": null, "Fax": "(404) 688-4421", "Email": null, "Website": "http:\/\/www.scsatl.org\/stpaul.asp", "Label": "St. Paul" }, "geometry": { "type": "Point", "coordinates": [ -84.376402805052777, 33.740963034467534 ] } },
{ "type": "Feature", "properties": { "Ctr_Name": "North Cobb Senior Center", "Address": "4100 Highway 293", "Address2": null, "City": "Acworth", "State": "GA", "ZipCode": "30101", "County": "Cobb", "MailAddres": "c\/o Cobb Senior Services 32 North Fairground Street, Marietta, GA  30060", "Contact_Nm": "Carol Kaskawitz", "Title": "Program Coordinator", "Phone1": "(770) 975-7740", "Phone2": null, "Fax": "(770) 917-0647", "Email": "Carol.kaskawitz@cobbcounty.org", "Website": "www.cobbseniors.org", "Label": "North Cobb" }, "geometry": { "type": "Point", "coordinates": [ -84.676696685300087, 34.065677527353522 ] } },
{ "type": "Feature", "properties": { "Ctr_Name": "Auburn Senior Center", "Address": "300 Edgewood Avenue, N.E.", "Address2": null, "City": "Atlanta", "State": "GA", "ZipCode": "30310", "County": "Fulton", "MailAddres": null, "Contact_Nm": "Lizzie Jeter-Hillery", "Title": "Director", "Phone1": "(404) 224-3140", "Phone2": null, "Fax": "(404) 224-3142", "Email": "lhillery@scsatl.org", "Website": "www.scsatl.org", "Label": "Auburn" }, "geometry": { "type": "Point", "coordinates": [ -84.377914652152754, 33.754373984534574 ] } },
{ "type": "Feature", "properties": { "Ctr_Name": "Southeast Neighborhood Senior Center", "Address": "1650 New Town Circle, S.E.", "Address2": null, "City": "Atlanta", "State": "GA", "ZipCode": "30315", "County": "Fulton", "MailAddres": null, "Contact_Nm": "Cary Herron", "Title": "I & R Specialist", "Phone1": "(404) 624-0641", "Phone2": null, "Fax": "(404) 624-0645", "Email": "cherron@scsatl.org", "Website": "www.scsatl.org", "Label": "Southeast" }, "geometry": { "type": "Point", "coordinates": [ -84.361527912263455, 33.707067782614402 ] } },
{ "type": "Feature", "properties": { "Ctr_Name": "Clarkston Community Center, Inc.", "Address": "3701 College Avenue", "Address2": null, "City": "Clarkston", "State": "GA", "ZipCode": "30021", "County": "DeKalb", "MailAddres": "P.O. Box 217, Clarkston, GA  30021", "Contact_Nm": "Almaz Akalewold", "Title": "Director", "Phone1": "(404) 508-1050", "Phone2": null, "Fax": "(404) 508-3007", "Email": "cccsrp@bellsouth.net", "Website": "http:\/\/www.clarkstoncommunitycenter.org\/", "Label": "Clarkston" }, "geometry": { "type": "Point", "coordinates": [ -84.238963823436265, 33.806507341211244 ] } },
{ "type": "Feature", "properties": { "Ctr_Name": "Bells Ferry Neighborhood Senior Center", "Address": "5323 Bells Ferry Road", "Address2": "Heritage Presbyterian Church", "City": "Acworth", "State": "GA", "ZipCode": "30101", "County": "Cherokee", "MailAddres": "c\/o Cherokee County Senior Services 1001 Univeter Road, Canton, GA  30115", "Contact_Nm": "Joy Grimm", "Title": "Program Director", "Phone1": "(770) 479-7438", "Phone2": null, "Fax": "(770) 345-6737", "Email": null, "Website": "www.cherokeecountyga.com", "Label": "Bells Ferry" }, "geometry": { "type": "Point", "coordinates": [ -84.574858963023075, 34.081002839965706 ] } },
{ "type": "Feature", "properties": { "Ctr_Name": "J.C. Griswell Senior Center", "Address": "2300 Highway 138 SE", "Address2": null, "City": "Jonesboro", "State": "GA", "ZipCode": "30236", "County": "Clayton", "MailAddres": null, "Contact_Nm": "Mindy French", "Title": "Manager", "Phone1": "(770) 477-3499", "Phone2": null, "Fax": null, "Email": null, "Website": null, "Label": "Griswell" }, "geometry": { "type": "Point", "coordinates": [ -84.314996919464917, 33.535781088999535 ] } },
{ "type": "Feature", "properties": { "Ctr_Name": "West Cobb Senior Center", "Address": "4915 Dallas Highway", "Address2": null, "City": "Powder Springs", "State": "GA", "ZipCode": "30073", "County": "Cobb", "MailAddres": null, "Contact_Nm": "Pam Broadwell", "Title": "Site Manager", "Phone1": "(770) 528-8200", "Phone2": null, "Fax": "(770) 258-8209", "Email": "Pamela.broadwell@cobbcounty.org", "Website": "http:\/\/www.cobbseniors.org\/", "Label": "West Cobb" }, "geometry": { "type": "Point", "coordinates": [ -84.696949106414337, 33.943437610897327 ] } }
]
}
